Date,Nature Code,Address,Call ID,First In Unit,Call Processing Time,Initial Response,Full Complement,Full Overwhelm?,Partial Overwhelm?,Has Response(s),Remarks,Level 1 Cause,Level 2 Cause,Custom Content,Region,Dispatch Rule,Response Plan,X Coordinate,Y Coordinate,Longitude,Latitude
01/01/2017 00:00:39,321,UNKNOWN ADDRESS,2017-000001,E48,0,3.67815,4.71415,N,N,Y,,EMS,ALS,,Atlantis,ALS Rule,ALS Response,6946428.556,416565.0307,-125.3327,44.70623
01/01/2017 00:04:53,744,1701 NORTHWEST JUNIPER STREET,2017-000002,E12,0,4.229833,4.229833,N,N,Y,,Fire,False Alarm,,Atlantis,Catchall Rule,Generic Response,6950370.625,433262.7964,-125.32139,44.7526
01/01/2017 00:21:30,321,4301 SOUTHWEST GEROLD STREET,2017-000003,E76,0,4.685867,5.0156,N,N,Y,,EMS,ALS,,Atlantis,ALS Rule,ALS Response,6946079.841,403307.5607,-125.33099,44.66988
01/01/2017 00:35:38,324,30TH STREET/BASELINE ROAD,2017-000004,E8,0,3.845867,3.845867,N,N,Y,,MVA,MVA N.O.S.,,Atlantis,Catchall Rule,Generic Response,6929123.468,414337.4429,-125.39862,44.69728
01/01/2017 00:39:11,611,1236 SOUTH KING STREET,2017-000005,E79,0,2.981667,2.981667,N,N,Y,,Fire,Good Intent,,Paradise Island,Catchall Rule,Generic Response,6915305.676,425553.0632,-125.4543,44.72568
01/01/2017 00:44:25,743,1210 NORTHEAST 3RD STREET,2017-000006,E1,0,2.568083,2.568083,N,N,Y,,Fire,False Alarm,,Atlantis,Catchall Rule,Generic Response,6940297.306,435973.9377,-125.36073,44.75837
01/01/2017 00:45:02,743,901 BELMONT ROAD,2017-000007,E74,0,4.626483,4.626483,N,N,Y,,Fire,False Alarm,,Atlantis,Catchall Rule,Generic Response,6942731.652,447946.987,-125.35414,44.79155
01/01/2017 00:46:04,552,4501 NORTHWEST GILMAN BOULEVARD,2017-000008,E10,0,3.87475,3.87475,N,N,Y,,Service,Service N.O.S.,,Atlantis,Catchall Rule,Generic Response,6950061.99,435112.1059,-125.323,44.75761
01/01/2017 00:50:57,321,5504 ALDER STREET,2017-000009,M3,0,3.4411,3.4411,N,N,Y,,EMS,ALS,,Atlantis,ALS Rule,ALS Response,6936354.898,399802.665,-125.36749,44.65868
01/01/2017 00:51:14,321,648 EAST 17TH AVENUE,2017-000010,E31,0,5.56875,6.2027,N,N,Y,,EMS,ALS,,Atlantis,ALS Rule,ALS Response,6935438.819,397952.52,-125.37058,44.65346
01/01/2017 01:09:04,600,8301 MEADOW GREEN CIRCLE,2017-000011,E13,0,4.666633,4.666633,N,N,Y,,Fire,Good Intent,,Gramsham,Catchall Rule,Generic Response,6943473.335,384803.3878,-125.33673,44.61878
01/01/2017 01:26:44,445,5701 NORTHEAST PENN AVENUE,2017-000012,E1,0,3.368783,3.368783,N,N,Y,,Hazardous Condition,Hazardous Condition N.O.S.,,Atlantis,Catchall Rule,Generic Response,6941506.955,437198.8709,-125.35636,44.76192
01/01/2017 01:29:11,622,7733 SOUTHEAST RAYMOND STREET,2017-000013,E55,0,3.606867,3.606867,N,N,Y,,Fire,Good Intent,,Atlantis,Catchall Rule,Generic Response,6951503.823,406989.8642,-125.31102,44.68085
01/01/2017 02:14:32,311,901 BELMONT ROAD,2017-000014,M74,0,4.626483,4.626483,N,N,Y,,EMS,BLS,,Atlantis,EMS rule,BLS Response,6942731.652,447946.987,-125.35414,44.79155
01/01/2017 02:14:57,511,5001 WALNUT STREET,2017-000015,E71,0,3.9806,3.9806,N,N,Y,,Service,Service N.O.S.,,Atlantis,Catchall Rule,Generic Response,6929172.894,420985.2119,-125.39998,44.71549
01/01/2017 02:17:52,324,NORTHEAST THOMPSON STREET/NORTHEAST 41ST AVENUE,2017-000016,E23,0,2.951733,2.951733,N,N,Y,,MVA,MVA N.O.S.,,Atlantis,Catchall Rule,Generic Response,6942818.23,426598.01,-125.34887,44.73311
01/01/2017 02:21:52,321,3119 SOUTHEAST 12TH AVENUE,2017-000017,E73,0,1.6738,5.083433,N,N,Y,,EMS,ALS,,Atlantis,ALS Rule,ALS Response,6933508.878,412906.7122,-125.38145,44.69409
01/01/2017 02:23:02,321,8401 NORTHEAST SANDY BOULEVARD,2017-000018,E17,0,3.35275,5.585767,N,N,Y,,EMS,ALS,,Atlantis,ALS Rule,ALS Response,6937114.066,422504.7934,-125.36984,44.72096
01/01/2017 02:39:51,734,110 4TH ST SE,2017-000019,E19,0,3.50505,3.50505,N,N,Y,,Fire,False Alarm,,Atlantis,Catchall Rule,Generic Response,6961398.209,420853.1178,-125.27619,44.72042
01/01/2017 02:46:59,311,4504 SOUTHEAST ANKENY STREET,2017-000020,M2,0,4.296817,4.296817,N,N,Y,,EMS,BLS,,Atlantis,EMS rule,BLS Response,6945015.083,420410.7974,-125.33901,44.71653
01/01/2017 02:54:57,321,9302 SOUTHEAST KELLY STREET,2017-000021,E73,0,1.69675,5.0882,N,N,Y,,EMS,ALS,,Atlantis,ALS Rule,ALS Response,6933461.898,412934.1158,-125.38164,44.69416
01/01/2017 02:58:22,311,6801 SOUTHEAST 11TH AVENUE,2017-000022,M63,0,5.9264,5.9264,N,N,Y,,EMS,BLS,,Atlantis,EMS rule,BLS Response,6933085.424,413029.1511,-125.3831,44.69435
01/01/2017 03:11:22,554,7401 RYCROFT STREET,2017-000023,E79,0,2.905283,2.905283,N,N,Y,,Service,Service N.O.S.,,Paradise Island,Catchall Rule,Generic Response,6914788.442,424937.8684,-125.45614,44.7239
01/01/2017 03:14:24,321,3401 KINCAID PLACE,2017-000024,E54,0,4.116167,4.980017,N,N,Y,,EMS,ALS,,Atlantis,ALS Rule,ALS Response,6926104.399,427482.6099,-125.41328,44.73277
01/01/2017 03:27:53,311,3551 SOUTHEAST DIVISION STREET,2017-000025,M39,0,2.929533,2.929533,N,N,Y,,EMS,BLS,,Atlantis,EMS rule,BLS Response,6940388.588,414104.1951,-125.35532,44.6985
01/01/2017 03:31:51,321,9701 SOUTHWEST WOLVERINE DRIVE,2017-000026,E53,0,4.67345,6.0127,N,N,Y,,EMS,ALS,,Atlantis,ALS Rule,ALS Response,6949920.502,397416.8465,-125.3149,44.65438
01/01/2017 03:33:46,600,3285 30TH STREET,2017-000027,E71,0,4.0999,4.0999,N,N,Y,,Fire,Good Intent,,Atlantis,Catchall Rule,Generic Response,6929480.623,425914.7742,-125.39994,44.72904
01/01/2017 03:34:15,321,4901 EAST LAKE SAMMAMISH PARKWAY SOUTHEAST,2017-000028,M68,0,4.7656,4.7656,N,N,Y,,EMS,ALS,,Atlantis,ALS Rule,ALS Response,6953143.954,435425.1123,-125.31123,44.75898
01/01/2017 03:34:33,311,360 NORTHEAST QUIMBY AVENUE,2017-000029,M1,0,3.577967,3.577967,N,N,Y,,EMS,BLS,,Atlantis,EMS rule,BLS Response,6940628.337,437674.6754,-125.35985,44.76308
01/01/2017 04:21:52,743,4101 CANYON BOULEVARD,2017-000030,E6,0,4.530067,4.530067,N,N,Y,,Fire,False Alarm,,Atlantis,Catchall Rule,Generic Response,6925423.846,420664.1416,-125.4143,44.71398
01/01/2017 04:32:34,321,2501 SOUTHEAST RHONE STREET,2017-000031,M32,0,4.102317,4.102317,N,N,Y,,EMS,ALS,,Atlantis,ALS Rule,ALS Response,6949232.445,410100.1079,-125.32045,44.68899
01/01/2017 04:38:44,745,8435 NORTHEAST GLISAN STREET,2017-000032,E37,0,4.435267,4.435267,N,N,Y,,Fire,False Alarm,,Atlantis,Catchall Rule,Generic Response,6954533.633,421382.2107,-125.30268,44.72075
01/01/2017 04:43:33,611,WEST STREET,2017-000033,E16,0,5.740917,5.740917,N,N,Y,,Fire,Good Intent,,Gramsham,Catchall Rule,Generic Response,6917413.818,382058.6341,-125.43599,44.60695
01/01/2017 04:46:08,744,1101 PUNAHOU STREET,2017-000034,E79,0,4.977233,4.977233,N,N,Y,,Fire,False Alarm,,Paradise Island,Catchall Rule,Generic Response,6918834.15,426432.1194,-125.44096,44.72868
01/01/2017 04:55:01,324,SERVICE ROAD,2017-000035,E8,0,4.449733,4.449733,N,N,Y,,MVA,MVA N.O.S.,,Atlantis,Catchall Rule,Generic Response,6927433.628,417927.0877,-125.40594,44.70683
01/01/2017 04:59:53,740,1935 SOUTHEAST HAWTHORNE BOULEVARD,2017-000036,E52,0,4.354133,4.354133,N,N,Y,,Fire,False Alarm,,Atlantis,Catchall Rule,Generic Response,6935774.938,417146.5436,-125.37373,44.70607
01/01/2017 05:21:10,300,7201 NORTHEAST COUCH STREET,2017-000037,M39,0,5.268217,5.268217,N,N,Y,,EMS,BLS,,Atlantis,EMS rule,BLS Response,6938271.224,421123.8902,-125.36507,44.71738
01/01/2017 05:36:06,311,401 SOUTHEAST RHINE STREET,2017-000038,M32,0,5.284117,5.284117,N,N,Y,,EMS,BLS,,Atlantis,EMS rule,BLS Response,6952725.786,410266.2931,-125.30708,44.69002
01/01/2017 05:36:34,321,2543 BROADWAY,2017-000039,E6,0,2.2543,5.109867,N,N,Y,,EMS,ALS,,Paradise Island,ALS Rule,ALS Response,6922039.411,423035.0327,-125.42785,44.71991
01/01/2017 05:50:54,736,9303 SOUTHEAST MALL STREET,2017-000040,E41,0,4.051783,4.051783,N,N,Y,,Fire,False Alarm,,Atlantis,Catchall Rule,Generic Response,6934289.457,409536.9956,-125.37767,44.68499
01/01/2017 05:54:22,321,5901 EAST 13TH AVENUE,2017-000041,M3,0,3.5268,3.5268,N,N,Y,,EMS,ALS,,Atlantis,ALS Rule,ALS Response,6935920.897,399503.5487,-125.36909,44.65779
01/01/2017 06:08:24,911,3201 SOUTHEAST RAYMOND STREET,2017-000042,E76,0,3.386233,3.386233,N,N,Y,,Service,Service N.O.S.,,Atlantis,Catchall Rule,Generic Response,6947908.958,406730.7166,-125.32475,44.67955
01/01/2017 06:20:49,321,SERVICE ROAD,2017-000043,E29,0,2.198467,5.611033,N,N,Y,,EMS,ALS,,Atlantis,ALS Rule,ALS Response,6961538.075,429637.6757,-125.27765,44.74449
01/01/2017 06:26:02,323,HANA HIGHWAY,2017-000044,E80,0,3.6824,3.6824,N,N,Y,,MVA,MVA N.O.S.,,Paradise Island,Catchall Rule,Generic Response,6909142.134,429855.4447,-125.47899,44.73642
01/01/2017 06:36:05,600,7501 NORTHEAST GLISAN STREET,2017-000045,E52,0,4.267167,4.267167,N,N,Y,,Fire,Good Intent,,Atlantis,Catchall Rule,Generic Response,6939178.44,422090.1856,-125.36181,44.72017
01/01/2017 06:40:48,321,4342 SOUTHEAST 27TH AVENUE,2017-000046,E41,0,3.3966,5.041283,N,N,Y,,EMS,ALS,,Atlantis,ALS Rule,ALS Response,6937270.328,409315.4269,-125.36618,44.68488
01/01/2017 06:43:09,324,SOUTHEAST GLADSTONE STREET,2017-000047,E44,0,4.517217,4.517217,N,N,Y,,MVA,MVA N.O.S.,,Atlantis,Catchall Rule,Generic Response,6936438.178,410065.4445,-125.36955,44.68679
01/01/2017 06:45:06,311,3155 EAST BURNSIDE STREET,2017-000048,M2,0,4.965817,4.965817,N,N,Y,,EMS,BLS,,Atlantis,EMS rule,BLS Response,6939564.901,420911.4334,-125.36005,44.71701
01/01/2017 06:47:35,735,NORTHEAST 33RD AVENUE,2017-000049,E23,0,3.663533,3.663533,N,N,Y,,Fire,False Alarm,,Atlantis,Catchall Rule,Generic Response,6940348.179,425412.9303,-125.35809,44.72946
01/01/2017 06:49:11,321,1670 KALAKAUA AVENUE,2017-000050,M79,0,2.729467,2.729467,N,N,Y,,EMS,ALS,,Paradise Island,ALS Rule,ALS Response,6916881.084,423649.9531,-125.4478,44.72073
01/01/2017 06:49:50,611,510 8TH AVENUE NORTHEAST,2017-000051,E29,0,4.484233,4.484233,N,N,Y,,Fire,Good Intent,,Atlantis,Catchall Rule,Generic Response,6957767.569,431452.468,-125.29255,44.74885
01/01/2017 06:53:18,321,9001 SOUTHWEST 3RD STREET,2017-000052,E9,0,2.323067,6.766133,N,N,Y,,EMS,ALS,,Atlantis,ALS Rule,ALS Response,6957001.8,398478.0489,-125.28798,44.65844
01/01/2017 06:55:50,324,BASELINE ROAD,2017-000053,E54,0,4.090917,4.090917,N,N,Y,,MVA,MVA N.O.S.,,Atlantis,Catchall Rule,Generic Response,6929073.991,431967.6804,-125.40292,44.74554
01/01/2017 06:57:26,735,5401 ARENDALSVEIEN,2017-000054,E81,0,1.755233,1.755233,N,N,Y,,Fire,False Alarm,,Atlantis,Catchall Rule,Generic Response,6969285.232,413959.5107,-125.24434,44.70281
01/01/2017 07:00:42,611,UNKNOWN ADDRESS,2017-000055,E2,0,3.162083,3.162083,N,N,Y,,Fire,Good Intent,,Atlantis,Catchall Rule,Generic Response,6943808.187,416986.0418,-125.34285,44.70696
01/01/2017 07:01:44,311,UNKNOWN ADDRESS,2017-000056,M2,0,4.050583,4.050583,N,N,Y,,EMS,BLS,,Atlantis,EMS rule,BLS Response,6945284.234,416980.6721,-125.33719,44.70718
01/01/2017 07:07:13,321,3701 NORTHEAST HALSEY STREET,2017-000057,E20,0,2.886517,5.389417,N,N,Y,,EMS,ALS,,Atlantis,ALS Rule,ALS Response,6947371.719,424398.1259,-125.33088,44.72784
01/01/2017 07:11:05,324,WATLING ROAD/STYGLER ROAD,2017-000058,E13,0,4.544683,4.544683,N,N,Y,,MVA,MVA N.O.S.,,Gramsham,Catchall Rule,Generic Response,6936940.174,388052.396,-125.36253,44.6266
01/01/2017 07:15:56,321,2504 SOUTHEAST WOODWARD STREET,2017-000059,M32,0,4.382617,4.382617,N,N,Y,,EMS,ALS,,Atlantis,ALS Rule,ALS Response,6947604.83,412340.7276,-125.32721,44.69486
01/01/2017 07:18:47,311,102 SOUTHEAST 47TH AVENUE,2017-000060,M2,0,4.956217,4.956217,N,N,Y,,EMS,BLS,,Atlantis,EMS rule,BLS Response,6943736.615,413058.9302,-125.34222,44.69619
01/01/2017 07:20:58,321,5800 SOUTHEAST DIVISION STREET,2017-000061,E49,0,3.506367,5.429083,N,N,Y,,EMS,ALS,,Atlantis,ALS Rule,ALS Response,6946326.693,413742.4342,-125.33244,44.69849
01/01/2017 07:35:04,150,UNKNOWN ADDRESS,2017-000062,E27,0,4.213883,4.213883,N,N,Y,,Fire,Outdoor Fire,,Atlantis,Catchall Rule,Generic Response,6938907.065,405650.6788,-125.35905,44.67511
01/01/2017 07:35:21,321,1301 NORTHWEST VICKSBURG AVENUE,2017-000063,E38,0,2.753617,5.2114,N,N,Y,,EMS,ALS,,Atlantis,ALS Rule,ALS Response,6936893.755,438218.6172,-125.37433,44.76395
01/01/2017 07:44:17,324,9TH AVENUE SOUTHEAST/10TH STREET SOUTHEAST,2017-000064,E75,0,4.210117,4.210117,N,N,Y,,MVA,MVA N.O.S.,,Atlantis,Catchall Rule,Generic Response,6948303.687,443472.0087,-125.33168,44.78022
01/01/2017 07:47:04,321,2101 SOUTHWEST SIMPSON AVENUE,2017-000065,M1,0,4.758467,4.948583,N,N,Y,,EMS,ALS,,Atlantis,ALS Rule,ALS Response,6934392.238,431029.0728,-125.38227,44.74385
01/01/2017 07:48:31,321,7701 SOUTHEAST MILWAUKIE AVENUE,2017-000066,E41,0,4.096517,5.6082,N,N,Y,,EMS,ALS,,Atlantis,ALS Rule,ALS Response,6933927.965,409265.961,-125.379,44.68419
01/01/2017 07:58:12,736,5201 NORTHWEST MAPLE STREET,2017-000067,E10,0,3.1246,3.1246,N,N,Y,,Fire,False Alarm,,Atlantis,Catchall Rule,Generic Response,6948456.855,434701.7724,-125.32908,44.75623
01/01/2017 08:00:02,745,5901 NORTHEAST HAZELFERN PLACE,2017-000068,E72,0,3.968717,3.968717,N,N,Y,,Fire,False Alarm,,Atlantis,Catchall Rule,Generic Response,6941596.976,423368.9141,-125.35282,44.72407
01/01/2017 08:04:45,321,520 NORTHWEST WALL STREET,2017-000069,E38,0,4.3813,4.87255,N,N,Y,,EMS,ALS,,Atlantis,ALS Rule,ALS Response,6936512.472,434064.2079,-125.37483,44.75252
01/01/2017 08:09:28,324,SECONDARY ROAD,2017-000070,E49,0,3.716167,3.716167,N,N,Y,,MVA,MVA N.O.S.,,Atlantis,Catchall Rule,Generic Response,6942343.224,415406.952,-125.34811,44.70239
01/01/2017 08:10:09,321,4840 SOUTHWEST PHILOMATH BOULEVARD,2017-000071,E76,0,4.763783,5.2385,N,N,Y,,EMS,ALS,,Atlantis,ALS Rule,ALS Response,6946706.492,402458.8092,-125.32839,44.66766
01/01/2017 08:15:05,324,SERVICE ROAD,2017-000072,E8,0,3.5271,3.5271,N,N,Y,,MVA,MVA N.O.S.,,Atlantis,Catchall Rule,Generic Response,6923598.938,414724.6515,-125.41991,44.69742
01/01/2017 08:18:24,150,5801 HIGH STREET,2017-000073,E6,0,2.018783,2.018783,N,N,Y,,Fire,Outdoor Fire,,Atlantis,Catchall Rule,Generic Response,6923174.002,422279.2895,-125.42332,44.71803
01/01/2017 08:18:26,611,3619 SOUTHEAST DIVISION STREET,2017-000074,E39,0,3.201183,3.201183,N,N,Y,,Fire,Good Intent,,Atlantis,Catchall Rule,Generic Response,6940730.531,414081.6876,-125.354,44.6985
01/01/2017 08:19:07,611,GEORGE J KING BOULEVARD,2017-000075,E78,0,3.813933,3.813933,N,N,Y,,Fire,Good Intent,,Atlantis,Catchall Rule,Generic Response,6995412.805,393811.2849,-125.13957,44.6518
01/01/2017 08:26:25,321,9701 NORTHEAST SEWARD AVENUE,2017-000076,M1,0,3.79265,3.79265,N,N,Y,,EMS,ALS,,Atlantis,ALS Rule,ALS Response,6940958.31,438371.5518,-125.35874,44.76504
01/01/2017 08:29:55,611,7102 4TH STREET SOUTHEAST,2017-000077,E19,0,3.424333,3.424333,N,N,Y,,Fire,Good Intent,,Atlantis,Catchall Rule,Generic Response,6961649.311,420728.0991,-125.2752,44.72011
01/01/2017 08:44:58,622,SERVICE ROAD,2017-000078,E68,0,4.737833,4.737833,N,N,Y,,Fire,Good Intent,,Atlantis,Catchall Rule,Generic Response,6953155.989,435521.7812,-125.31121,44.75924
01/01/2017 08:46:38,611,3701 SOUTHEAST DIVISION STREET,2017-000079,E39,0,3.2983,3.2983,N,N,Y,,Fire,Good Intent,,Atlantis,Catchall Rule,Generic Response,6940870.353,414081.9877,-125.35346,44.69852
01/01/2017 08:47:31,321,8601 TABLE MESA DRIVE,2017-000080,M63,0,1.33285,1.33285,N,N,Y,,EMS,ALS,,Atlantis,ALS Rule,ALS Response,6926194.421,408051.2541,-125.40839,44.67958
01/01/2017 08:50:27,151,4801 VESTREGATE,2017-000081,E81,0,4.269467,4.269467,N,N,Y,,Fire,Outdoor Fire,,Atlantis,Catchall Rule,Generic Response,6968067.771,411176.803,-125.24839,44.695
01/01/2017 09:04:45,321,1301 NORTHWEST SAGINAW AVENUE,2017-000082,E38,0,1.13495,5.348283,N,N,Y,,EMS,ALS,,Atlantis,ALS Rule,ALS Response,6935733.335,437716.4974,-125.37867,44.76239
01/01/2017 09:07:38,321,330 SOUTHEAST 6TH AVENUE,2017-000083,E7,0,2.586167,5.289583,N,N,Y,,EMS,ALS,,Atlantis,ALS Rule,ALS Response,6932423.075,420306.8996,-125.38734,44.71417
01/01/2017 09:09:47,311,510 8TH AVENUE NORTHEAST,2017-000084,M12,0,5.340083,5.340083,N,N,Y,,EMS,BLS,,Atlantis,EMS rule,BLS Response,6957713.56,431538.6535,-125.29278,44.74908
01/01/2017 09:11:05,321,2201 DARTMOUTH AVENUE,2017-000085,E4,0,3.931983,4.9108,N,N,Y,,EMS,ALS,,Atlantis,ALS Rule,ALS Response,6929597.993,410230.1709,-125.39584,44.68611
01/01/2017 09:15:27,311,3564 SOUTHEAST POWELL BOULEVARD,2017-000086,M39,0,4.59965,4.59965,N,N,Y,,EMS,BLS,,Atlantis,EMS rule,BLS Response,6940335.827,411007.4071,-125.35481,44.69002
01/01/2017 09:15:49,710,2801 YOUNG STREET,2017-000087,E79,0,4.233517,4.233517,N,N,Y,,Fire,False Alarm,,Paradise Island,Catchall Rule,Generic Response,6919407.866,423787.0065,-125.43813,44.72153
01/01/2017 09:17:23,324,SERVICE ROAD,2017-000088,E55,0,2.80755,2.80755,N,N,Y,,MVA,MVA N.O.S.,,Atlantis,Catchall Rule,Generic Response,6952719.91,407541.1688,-125.30648,44.68255
01/01/2017 09:17:50,321,6031 SOUTHEAST BELMONT STREET,2017-000089,E48,0,1.9293,4.4941,N,N,Y,,EMS,ALS,,Atlantis,ALS Rule,ALS Response,6947408.688,418119.7534,-125.32929,44.71065
01/01/2017 09:26:16,322,KENNEDY PARKWAY NORTH,2017-000090,E66,0,5.458883,5.458883,N,N,Y,,MVA,MVA N.O.S.,,Atlantis,Catchall Rule,Generic Response,6983737.381,451656.7259,-125.19728,44.80836
01/01/2017 09:27:10,321,9209 SOUTHEAST STARK STREET,2017-000091,E37,0,3.207867,5.116083,N,N,Y,,EMS,ALS,,Atlantis,ALS Rule,ALS Response,6956017.019,418500.4876,-125.29632,44.7131
01/01/2017 09:35:04,324,SERVICE ROAD,2017-000092,E7,0,4.246733,4.246733,N,N,Y,,MVA,MVA N.O.S.,,Atlantis,Catchall Rule,Generic Response,6931200.6,421698.7592,-125.39236,44.71778
01/01/2017 09:41:05,321,6002 1ST AVENUE SOUTHEAST,2017-000093,E34,0,3.492683,4.30505,N,N,Y,,EMS,ALS,,Atlantis,ALS Rule,ALS Response,6961139.62,419599.7761,-125.2769,44.71694
01/01/2017 09:45:33,311,2101 SOUTHWEST SIMPSON AVENUE,2017-000094,M1,0,5.825533,5.825533,N,N,Y,,EMS,BLS,,Atlantis,EMS rule,BLS Response,6934392.238,431029.0728,-125.38227,44.74385
01/01/2017 09:51:59,321,901 BASELINE ROAD,2017-000095,E47,0,4.3627,5.923283,N,N,Y,,EMS,ALS,,Atlantis,ALS Rule,ALS Response,6931925.139,431821.8531,-125.39193,44.74562
01/01/2017 09:58:04,321,UNKNOWN ADDRESS,2017-000096,E49,0,3.395033,3.582883,N,N,Y,,EMS,ALS,,Atlantis,ALS Rule,ALS Response,6943683.474,416226.4561,-125.34316,44.70486
01/01/2017 10:05:30,740,7401 REDSTONE ROAD,2017-000097,E31,0,3.888567,3.888567,N,N,Y,,Fire,False Alarm,,Atlantis,Catchall Rule,Generic Response,6928133.787,402898.2106,-125.39975,44.66579
01/01/2017 10:05:53,324,BROADWAY,2017-000098,E6,0,2.148067,2.148067,N,N,Y,,MVA,MVA N.O.S.,,Paradise Island,Catchall Rule,Generic Response,6922099.604,422989.1862,-125.42761,44.7198
01/01/2017 10:08:27,321,5201 SOUTHEAST 28TH AVENUE,2017-000099,M39,0,3.234483,3.234483,N,N,Y,,EMS,ALS,,Atlantis,ALS Rule,ALS Response,6937603.722,413062.8591,-125.36577,44.69519
01/01/2017 10:17:24,611,330 SOUTHEAST 6TH AVENUE,2017-000100,E7,0,2.586167,2.586167,N,N,Y,,Fire,Good Intent,,Atlantis,Catchall Rule,Generic Response,6932423.075,420306.8996,-125.38734,44.71417
01/01/2017 10:17:33,321,280 CHAPELFIELD ROAD,2017-000101,M13,0,4.432317,4.432317,N,N,Y,,EMS,ALS,,Gramsham,ALS Rule,ALS Response,6937838.928,388674.582,-125.35923,44.62846
01/01/2017 10:18:06,321,3801 SOUTHWEST HOPKINS AVENUE,2017-000102,E9,0,3.90335,6.244733,N,N,Y,,EMS,ALS,,Atlantis,ALS Rule,ALS Response,6956788.761,401453.3768,-125.28947,44.66655
01/01/2017 10:19:40,324,601 NORTHEAST GREENWOOD AVENUE,2017-000103,E1,0,2.08425,2.08425,N,N,Y,,MVA,MVA N.O.S.,,Atlantis,Catchall Rule,Generic Response,6941570.948,434959.5055,-125.3556,44.7558
01/01/2017 10:25:22,622,3400 SOUTHEAST MILWAUKIE AVENUE,2017-000104,E73,0,2.707933,2.707933,N,N,Y,,Fire,Good Intent,,Atlantis,Catchall Rule,Generic Response,6933377.618,412002.2041,-125.38174,44.69159
01/01/2017 10:25:40,321,UNKNOWN ADDRESS,2017-000105,M63,0,3.189817,3.189817,N,N,Y,,EMS,ALS,,Atlantis,ALS Rule,ALS Response,6925964.611,405858.492,-125.40876,44.67354
01/01/2017 10:28:55,531,6701 BROADWAY,2017-000106,E8,0,4.782467,4.782467,N,N,Y,,Service,Service N.O.S.,,Atlantis,Catchall Rule,Generic Response,6923512.257,417340.47,-125.42086,44.70457
01/01/2017 10:37:46,321,6402 TOEDTLI DRIVE,2017-000107,E4,0,3.6837,5.345733,N,N,Y,,EMS,ALS,,Atlantis,ALS Rule,ALS Response,6931640.157,405941.2961,-125.387,44.67471
01/01/2017 10:38:33,700,9001 ALEKOKI PLACE,2017-000108,E6,0,4.902167,4.902167,N,N,Y,,Fire,False Alarm,,Paradise Island,Catchall Rule,Generic Response,6920025.651,425757.607,-125.43622,44.72703
01/01/2017 10:46:11,321,3301 SOUTH KING STREET,2017-000109,M79,0,3.937583,3.937583,N,N,Y,,EMS,ALS,,Paradise Island,ALS Rule,ALS Response,6918677.388,423915.4299,-125.44097,44.72176
01/01/2017 10:52:28,311,2802 SOUTHEAST 28TH PLACE,2017-000110,M39,0,2.746933,2.746933,N,N,Y,,EMS,BLS,,Atlantis,EMS rule,BLS Response,6937884.156,413419.7665,-125.36477,44.69622
01/01/2017 10:55:53,324,SOUTHEAST 58TH AVENUE,2017-000111,E32,0,1.908133,1.908133,N,N,Y,,MVA,MVA N.O.S.,,Atlantis,Catchall Rule,Generic Response,6946344.544,409990.6612,-125.33151,44.68822
01/01/2017 10:57:39,321,5401 ARENDALSVEIEN,2017-000112,E81,0,1.755233,5.522333,N,N,Y,,EMS,ALS,,Atlantis,ALS Rule,ALS Response,6969285.232,413959.5107,-125.24434,44.70281
01/01/2017 10:59:11,311,RESIDENTIAL ROAD,2017-000113,M2,0,4.625667,4.625667,N,N,Y,,EMS,BLS,,Atlantis,EMS rule,BLS Response,6945057.715,415433.076,-125.3377,44.70291
01/01/2017 11:01:25,311,6901 SOUTHEAST MORRISON STREET,2017-000114,M39,0,4.7062,4.7062,N,N,Y,,EMS,BLS,,Atlantis,EMS rule,BLS Response,6939242.752,418822.5631,-125.36081,44.71123
01/01/2017 11:02:38,142,6501 SW HAWKEYE AVE,2017-000115,E9,0,4.637283,4.637283,N,N,Y,,Fire,Outdoor Fire,,Atlantis,Catchall Rule,Generic Response,6951657.411,398277.8857,-125.30844,44.65702
01/01/2017 11:11:41,321,UNKNOWN ADDRESS,2017-000116,M63,0,3.379533,3.379533,N,N,Y,,EMS,ALS,,Atlantis,ALS Rule,ALS Response,6925890.936,405655.8683,-125.409,44.67297
01/01/2017 11:13:45,745,3401 UNIVERSITY STREET,2017-000117,E3,0,2.741117,2.741117,N,N,Y,,Fire,False Alarm,,Atlantis,Catchall Rule,Generic Response,6937841.435,398399.3352,-125.36146,44.65508
01/01/2017 11:15:56,300,3202 NORTHEAST PACIFIC STREET,2017-000118,M18,0,4.509917,4.509917,N,N,Y,,EMS,BLS,,Atlantis,EMS rule,BLS Response,6948737.601,422492.9537,-125.32519,44.72284
01/01/2017 11:22:15,131,4424 SOUTHEAST WOODSTOCK BOULEVARD,2017-000119,E27,0,2.170167,2.170167,N,N,Y,,Fire,Vehicle Fire,,Atlantis,Catchall Rule,Generic Response,6942554.384,404362.7723,-125.34476,44.67219
01/01/2017 11:30:51,321,8401 NORTHEAST 92ND AVENUE,2017-000120,E37,0,4.178483,4.589783,N,N,Y,,EMS,ALS,,Atlantis,ALS Rule,ALS Response,6955786.141,420412.0083,-125.29765,44.7183
01/01/2017 11:36:55,321,6701 KINCAID ST.,2017-000121,E3,0,2.3434,3.1638,N,N,Y,,EMS,ALS,,Atlantis,ALS Rule,ALS Response,6936820.816,399861.8061,-125.36572,44.65892
01/01/2017 11:40:07,321,901 BELMONT ROAD,2017-000122,M74,0,4.626483,4.626483,N,N,Y,,EMS,ALS,,Atlantis,ALS Rule,ALS Response,6942731.652,447946.987,-125.35414,44.79155
01/01/2017 11:44:34,324,SOUTHEAST 60TH AVENUE/SOUTHEAST HOLGATE BOULEVARD,2017-000123,E32,0,2.62335,2.62335,N,N,Y,,MVA,MVA N.O.S.,,Atlantis,Catchall Rule,Generic Response,6946832.55,408294.7292,-125.32925,44.68366
01/01/2017 11:46:23,671,ANDALUS DRIVE/INVICTA PLACE,2017-000124,E13,0,4.215367,4.215367,N,N,Y,,Fire,Good Intent,,Gramsham,Catchall Rule,Generic Response,6941129.24,388363.512,-125.34654,44.62815
01/01/2017 11:53:23,311,4805 NORTHEAST GLISAN STREET,2017-000125,M2,0,4.869617,4.869617,N,N,Y,,EMS,BLS,,Atlantis,EMS rule,BLS Response,6944994.931,421970.9381,-125.33945,44.7208
01/01/2017 11:54:21,321,2004 BLUEBIRD TERRACE NW,2017-000126,E29,0,3.41555,5.349283,N,N,Y,,EMS,ALS,,Atlantis,ALS Rule,ALS Response,6960955.525,427550.85,-125.27942,44.73868
01/01/2017 11:57:28,600,9501 SOUTHEAST STARK STREET,2017-000127,E7,0,2.2297,2.2297,N,N,Y,,Fire,Good Intent,,Atlantis,Catchall Rule,Generic Response,6932510.196,420013.3558,-125.38694,44.71338
01/01/2017 11:59:55,321,SOLODDVEIEN,2017-000128,M30,0,5.04935,5.04935,N,N,Y,,EMS,ALS,,Atlantis,ALS Rule,ALS Response,6966666.394,408041.7575,-125.25306,44.68619
01/01/2017 12:01:39,321,5429 SOUTHEAST FRANCIS STREET,2017-000129,M32,0,2.71525,2.71525,N,N,Y,,EMS,ALS,,Atlantis,ALS Rule,ALS Response,6945617.678,410103.9829,-125.33432,44.68841
01/01/2017 12:11:00,321,NORTHWEST POPPY DRIVE/NORTHWEST FOXTAIL STREET,2017-000130,M15,0,5.312633,5.312633,N,N,Y,,EMS,ALS,,Paradise Island,ALS Rule,ALS Response,6925482.26,435950.0316,-125.41765,44.75585
01/01/2017 12:14:46,324,TRUNK ROAD,2017-000131,E37,0,4.62535,4.62535,N,N,Y,,MVA,MVA N.O.S.,,Atlantis,Catchall Rule,Generic Response,6957020.703,420234.2673,-125.29286,44.71801
01/01/2017 12:16:23,324,SOUTHEAST 9TH AVENUE/SOUTHEAST SHERMAN STREET,2017-000132,E73,0,3.460033,3.460033,N,N,Y,,MVA,MVA N.O.S.,,Atlantis,Catchall Rule,Generic Response,6932794.795,415155.9317,-125.38471,44.70013
01/01/2017 12:18:38,661,1502 NORTHEAST 65TH AVENUE,2017-000133,E20,0,2.921667,2.921667,N,N,Y,,Fire,Good Intent,,Atlantis,Catchall Rule,Generic Response,6949052.719,424293.6033,-125.32439,44.72783
01/01/2017 12:22:37,321,6402 TOEDTLI DRIVE,2017-000134,E4,0,3.6837,5.345733,N,N,Y,,EMS,ALS,,Atlantis,ALS Rule,ALS Response,6931640.157,405941.2961,-125.387,44.67471
01/01/2017 12:23:44,324,SERVICE ROAD,2017-000135,E10,0,4.129683,4.129683,N,N,Y,,MVA,MVA N.O.S.,,Atlantis,Catchall Rule,Generic Response,6950593.194,436148.7079,-125.3212,44.76054
01/01/2017 12:26:25,611,SERVICE ROAD,2017-000136,E13,0,1.760767,1.760767,N,N,Y,,Fire,Good Intent,,Gramsham,Catchall Rule,Generic Response,6939135.514,385798.8508,-125.35359,44.62079
01/01/2017 12:26:37,321,4111 NORTHEAST TILLAMOOK STREET,2017-000137,M23,0,3.310317,3.310317,N,N,Y,,EMS,ALS,,Atlantis,ALS Rule,ALS Response,6942896.302,426182.9234,-125.34848,44.73199
01/01/2017 12:26:55,622,EAST 17TH AVENUE/MILL STREET,2017-000138,E3,0,4.726,4.726,N,N,Y,,Fire,Good Intent,,Atlantis,Catchall Rule,Generic Response,6934509.588,398114.6786,-125.37418,44.65375
01/01/2017 12:28:21,321,8140 SOUTHEAST CORA STREET,2017-000139,E55,0,2.05475,5.26375,N,N,Y,,EMS,ALS,,Atlantis,ALS Rule,ALS Response,6952622.239,408256.0232,-125.30701,44.6845
01/01/2017 12:35:52,321,145 SOUTHEAST 82ND AVENUE,2017-000140,M18,0,3.6639,3.6639,N,N,Y,,EMS,ALS,,Atlantis,ALS Rule,ALS Response,6953203.187,419405.5157,-125.30733,44.71512
01/01/2017 12:38:48,321,2932 SOUTHEAST DIVISION STREET,2017-000141,M39,0,1.50355,1.50355,N,N,Y,,EMS,ALS,,Atlantis,ALS Rule,ALS Response,6938406.892,414120.3048,-125.36293,44.69822
01/01/2017 12:40:32,300,9601 SOUTHEAST LAFAYETTE STREET,2017-000142,M63,0,5.895033,5.895033,N,N,Y,,EMS,BLS,,Atlantis,EMS rule,BLS Response,6934337.788,411358.0349,-125.37791,44.68999
01/01/2017 12:50:15,531,4901 SOUTHEAST 28TH PLACE,2017-000143,E39,0,3.832817,3.832817,N,N,Y,,Service,Service N.O.S.,,Atlantis,Catchall Rule,Generic Response,6937907.08,411795.3535,-125.36431,44.69177
01/01/2017 12:51:16,611,218 SOUTHEAST 82ND AVENUE,2017-000144,E18,0,3.88265,3.88265,N,N,Y,,Fire,Good Intent,,Atlantis,Catchall Rule,Generic Response,6953394.707,419209.0971,-125.30655,44.71461
01/01/2017 12:51:34,311,1255 HILYARD,2017-000145,M3,0,3.711233,3.711233,N,N,Y,,EMS,BLS,,Atlantis,EMS rule,BLS Response,6935919.284,399808.5997,-125.36916,44.65862
01/01/2017 12:53:52,321,901 SEAVIEW AVENUE,2017-000146,E6,0,4.448833,5.217183,N,N,Y,,EMS,ALS,,Paradise Island,ALS Rule,ALS Response,6920916.617,425346.8543,-125.4327,44.72605
01/01/2017 13:02:54,300,8001 WASHINGTON STREET,2017-000147,M3,0,5.686117,5.686117,N,N,Y,,EMS,BLS,,Atlantis,EMS rule,BLS Response,6931150.389,401767.0392,-125.38791,44.6632
01/01/2017 13:04:03,111,6801 SOUTHEAST REEDWAY STREET,2017-000148,BC8,0,3.708267,5.061083,N,N,Y,,Fire,Structure Fire,,Atlantis,Structure Fire Rule,First Alarm Response,6943773.732,405433.3655,-125.34033,44.67532
01/01/2017 13:04:57,311,202 WEST BROADWAY,2017-000149,M63,0,6.0284,6.0284,N,N,Y,,EMS,BLS,,Atlantis,EMS rule,BLS Response,6933091.447,401418.8481,-125.38039,44.66257
01/01/2017 13:13:21,321,3801 SOUTHWEST HOPKINS AVENUE,2017-000150,E9,0,3.90335,6.244733,N,N,Y,,EMS,ALS,,Atlantis,ALS Rule,ALS Response,6956788.761,401453.3768,-125.28947,44.66655
01/01/2017 13:14:36,321,8901 KEEAUMOKU STREET,2017-000151,M79,0,1.351383,1.351383,N,N,Y,,EMS,ALS,,Paradise Island,ALS Rule,ALS Response,6915367.443,423978.2971,-125.45369,44.72137
01/01/2017 13:15:12,324,NORTHWEST COLORADO AVENUE/NORTHWEST BROADWAY STREET,2017-000152,E38,0,4.70235,4.70235,N,N,Y,,MVA,MVA N.O.S.,,Atlantis,Catchall Rule,Generic Response,6935828.565,432567.477,-125.37711,44.7483
01/01/2017 13:17:21,321,214 SOUTHEAST WOODLAND BOULEVARD,2017-000153,M23,0,4.84465,4.84465,N,N,Y,,EMS,ALS,,Atlantis,ALS Rule,ALS Response,6939610.255,430842.2039,-125.36218,44.74421
01/01/2017 13:17:33,311,4805 NORTHEAST GLISAN STREET,2017-000154,M2,0,4.869617,4.869617,N,N,Y,,EMS,BLS,,Atlantis,EMS rule,BLS Response,6944994.931,421970.9381,-125.33945,44.7208
01/01/2017 13:17:53,311,519 SOUTHEAST 20TH AVENUE,2017-000155,M39,0,5.4343,5.4343,N,N,Y,,EMS,BLS,,Atlantis,EMS rule,BLS Response,6935904.25,419606.1536,-125.37381,44.71283
01/01/2017 13:18:44,311,7801 KALÃ„ÂKAUA AVENUE,2017-000156,M71,0,6.026817,6.026817,N,N,Y,,EMS,BLS,,Paradise Island,EMS rule,BLS Response,6919286.52,418752.6255,-125.43741,44.70773
01/01/2017 13:27:07,321,2101 SOUTHWEST SIMPSON AVENUE,2017-000157,M23,0,4.671817,4.948583,N,N,Y,,EMS,ALS,,Atlantis,ALS Rule,ALS Response,6934392.238,431029.0728,-125.38227,44.74385
01/01/2017 13:27:33,321,UNKNOWN ADDRESS,2017-000158,M71,0,3.786483,4.7547,N,N,Y,,EMS,ALS,,Paradise Island,ALS Rule,ALS Response,6922019.949,415757.6624,-125.42622,44.69998
01/01/2017 13:30:51,511,4601 HIGH STREET,2017-000159,E31,0,4.785983,4.785983,N,N,Y,,Service,Service N.O.S.,,Atlantis,Catchall Rule,Generic Response,6934347.234,402776.426,-125.37588,44.66649
01/01/2017 13:37:07,300,5631 SOUTHEAST WOODWARD STREET,2017-000160,M32,0,4.310067,4.310067,N,N,Y,,EMS,BLS,,Atlantis,EMS rule,BLS Response,6946082.682,413174.6353,-125.33324,44.69689
01/01/2017 13:38:12,321,6201 BEAR CREEK ROAD,2017-000161,E60,0,4.593533,4.857233,N,N,Y,,EMS,ALS,,Atlantis,ALS Rule,ALS Response,6943627.59,432270.2028,-125.34707,44.74878
01/01/2017 13:39:19,554,5503 WALNUT STREET,2017-000162,E6,0,4.389717,4.389717,N,N,Y,,Service,Service N.O.S.,,Atlantis,Catchall Rule,Generic Response,6925229.764,420810.636,-125.41508,44.71435
01/01/2017 13:42:08,324,NORTHEAST ROYAL COURT/NORTHEAST IMPERIAL AVENUE,2017-000163,E72,0,3.5605,3.5605,N,N,Y,,MVA,MVA N.O.S.,,Atlantis,Catchall Rule,Generic Response,6941650.581,422700.2835,-125.35246,44.72225
01/01/2017 13:42:59,651,3423 SOUTHEAST SHERMAN STREET,2017-000164,E39,0,2.822033,2.822033,N,N,Y,,Fire,Good Intent,,Atlantis,Catchall Rule,Generic Response,6939989.358,414612.1915,-125.35697,44.69983
01/01/2017 13:49:08,311,UNKNOWN ADDRESS,2017-000165,M2,0,3.585583,3.585583,N,N,Y,,EMS,BLS,,Atlantis,EMS rule,BLS Response,6942245.501,416261.0011,-125.34869,44.70472
01/01/2017 13:54:21,740,2875 SOUTHWEST WESTERN BOULEVARD,2017-000166,E42,0,3.820533,3.820533,N,N,Y,,Fire,False Alarm,,Atlantis,Catchall Rule,Generic Response,6952815.798,403871.5499,-125.30527,44.67252
01/01/2017 13:56:16,510,2801 17TH STREET NORTHEAST,2017-000167,E21,0,5.082283,5.082283,N,N,Y,,Service,Service N.O.S.,,Atlantis,Catchall Rule,Generic Response,6946952.46,455998.8426,-125.33977,44.81429
01/01/2017 13:56:36,324,SOUTHEAST FRANKLIN STREET,2017-000168,E44,0,4.11485,4.11485,N,N,Y,,MVA,MVA N.O.S.,,Atlantis,Catchall Rule,Generic Response,6943199.929,411716.983,-125.34398,44.69243
01/01/2017 13:59:54,321,901 BASELINE ROAD,2017-000169,E47,0,4.3627,5.923283,N,N,Y,,EMS,ALS,,Atlantis,ALS Rule,ALS Response,6931925.139,431821.8531,-125.39193,44.74562
01/01/2017 14:02:36,321,1144 NORTHEAST 82ND AVENUE,2017-000170,M18,0,4.801233,4.801233,N,N,Y,,EMS,ALS,,Atlantis,ALS Rule,ALS Response,6953613.716,423184.9572,-125.30662,44.72554
01/01/2017 14:10:23,321,2838 SOUTHEAST 82ND AVENUE,2017-000171,E55,0,4.285867,5.700217,N,N,Y,,EMS,ALS,,Atlantis,ALS Rule,ALS Response,6953146.345,412277.2524,-125.30592,44.69559
01/01/2017 14:10:46,611,2515 SOUTHEAST CLINTON STREET,2017-000172,E39,0,3.097267,3.097267,N,N,Y,,Fire,Good Intent,,Atlantis,Catchall Rule,Generic Response,6937067.206,413790.3973,-125.368,44.6971
01/01/2017 14:14:01,321,UNKNOWN ADDRESS,2017-000173,E49,0,3.428933,3.651483,N,N,Y,,EMS,ALS,,Atlantis,ALS Rule,ALS Response,6942901.074,415495.9155,-125.34599,44.70273
01/01/2017 14:14:08,321,6001 PARK DRIVE NORTHEAST,2017-000174,E29,0,2.430817,5.656783,N,N,Y,,EMS,ALS,,Atlantis,ALS Rule,ALS Response,6960378.94,430727.4894,-125.28235,44.74729
01/01/2017 14:14:39,311,10001 NORTHWEST UTICA AVENUE,2017-000175,M1,0,5.419483,5.419483,N,N,Y,,EMS,BLS,,Atlantis,EMS rule,BLS Response,6935764.144,438121.4937,-125.37865,44.7635
01/01/2017 14:22:00,600,501 NORTHWEST BOND STREET,2017-000176,E38,0,4.41625,4.41625,N,N,Y,,Fire,Good Intent,,Atlantis,Catchall Rule,Generic Response,6936407.939,433877.392,-125.37519,44.75199
01/01/2017 14:28:25,600,2305 SOUTHEAST 82ND AVENUE,2017-000177,E69,0,3.336633,3.336633,N,N,Y,,Fire,Good Intent,,Atlantis,Catchall Rule,Generic Response,6952930.982,413846.8626,-125.30711,44.69986
01/01/2017 14:33:23,321,UNKNOWN ADDRESS,2017-000178,M63,0,3.105633,3.105633,N,N,Y,,EMS,ALS,,Atlantis,ALS Rule,ALS Response,6926129.335,406058.8683,-125.40818,44.67411
01/01/2017 14:42:00,324,TERJE LÃ¸VÃ¥S VEI,2017-000179,E58,0,4.489633,4.489633,N,N,Y,,MVA,MVA N.O.S.,,Atlantis,Catchall Rule,Generic Response,6961279.114,405965.0826,-125.27327,44.67963
01/01/2017 14:50:37,321,1101 PUNAHOU STREET,2017-000180,M79,0,4.977233,4.977233,N,N,Y,,EMS,ALS,,Paradise Island,ALS Rule,ALS Response,6918834.15,426432.1194,-125.44096,44.72868
01/01/2017 14:50:38,600,4 YAWKEY WAY,2017-000181,E49,0,3.423333,3.423333,N,N,Y,,Fire,Good Intent,,Atlantis,Catchall Rule,Generic Response,6945112.575,417337.3507,-125.33793,44.70813
01/01/2017 14:54:11,131,SERVICE ROAD,2017-000182,E6,0,3.671867,3.671867,N,N,Y,,Fire,Vehicle Fire,,Atlantis,Catchall Rule,Generic Response,6923491.548,420504.8726,-125.42168,44.71323
01/01/2017 14:55:05,622,6602 EDISON LANE,2017-000183,E47,0,4.215017,4.215017,N,N,Y,,Fire,Good Intent,,Atlantis,Catchall Rule,Generic Response,6932320.113,424369.6169,-125.38868,44.72528
01/01/2017 14:58:31,324,SERVICE ROAD,2017-000184,E57,0,5.4276,5.4276,N,N,Y,,MVA,MVA N.O.S.,,Atlantis,Catchall Rule,Generic Response,7001541.117,411759.8516,-125.12,44.70192
01/01/2017 15:10:41,412,9255 SOUTHEAST MORRISON STREET,2017-000185,E37,0,2.545333,2.545333,N,N,Y,,Hazardous Condition,Hazardous Condition N.O.S.,,Atlantis,Catchall Rule,Generic Response,6956042.259,417642.6801,-125.29603,44.71076
01/01/2017 15:19:43,151,2115 SOUTHEAST MORRISON STREET,2017-000186,E52,0,2.1401,2.1401,N,N,Y,,Fire,Outdoor Fire,,Atlantis,Catchall Rule,Generic Response,6937266.777,418979.884,-125.36843,44.71134
01/01/2017 15:20:22,321,2480 ARAPAHOE AVENUE,2017-000187,E8,0,4.740967,4.833717,N,N,Y,,EMS,ALS,,Atlantis,ALS Rule,ALS Response,6927116.57,419001.6365,-125.40741,44.70971
01/01/2017 15:21:08,611,3188 NORTH HIGHWAY 97,2017-000188,E1,0,5.457033,5.457033,N,N,Y,,Fire,Good Intent,,Atlantis,Catchall Rule,Generic Response,6940428.607,442992.9626,-125.36185,44.77761
01/01/2017 15:23:25,321,NORTHEAST OREGON STREET,2017-000189,E17,0,3.895317,5.9899,N,N,Y,,EMS,ALS,,Atlantis,ALS Rule,ALS Response,6932251.618,423375.7059,-125.38871,44.72254
01/01/2017 15:25:36,321,7001 SOUTHEAST BELMONT STREET,2017-000190,E52,0,1.422383,4.99545,N,N,Y,,EMS,ALS,,Atlantis,ALS Rule,ALS Response,6936963.554,418650.5974,-125.36952,44.71039
01/01/2017 15:26:16,321,9703 SOUTHEAST TAYLOR STREET,2017-000191,E7,0,2.730033,5.8551,N,N,Y,,EMS,ALS,,Atlantis,ALS Rule,ALS Response,6931797.875,418309.6039,-125.38927,44.7086
01/01/2017 15:27:20,324,GARTNERIMYRA,2017-000192,E30,0,3.325467,3.325467,N,N,Y,,MVA,MVA N.O.S.,,Atlantis,Catchall Rule,Generic Response,6964137.624,412819.1098,-125.26385,44.69886
01/01/2017 15:27:41,324,8101 NORTHEAST RAVENWOOD DRIVE,2017-000193,E10,0,5.55275,5.55275,N,N,Y,,MVA,MVA N.O.S.,,Atlantis,Catchall Rule,Generic Response,6943077.007,440253.3194,-125.35103,44.77054
01/01/2017 15:35:44,251,SERVICE ROAD,2017-000195,E1,0,2.0503,2.0503,N,N,Y,,Fire,Explosion,,Atlantis,Catchall Rule,Generic Response,6940571.807,438504.3028,-125.36026,44.76534
01/01/2017 15:35:44,324,3580 NORTHEAST BROADWAY,2017-000194,E23,0,3.276683,3.276683,N,N,Y,,MVA,MVA N.O.S.,,Atlantis,Catchall Rule,Generic Response,6941324.369,425043.1359,-125.35425,44.72861
01/01/2017 15:37:01,300,4800 BASELINE ROAD,2017-000196,M71,0,5.488733,5.488733,N,N,Y,,EMS,BLS,,Atlantis,EMS rule,BLS Response,6928956.817,431182.6315,-125.40319,44.74337
01/01/2017 15:37:05,300,6402 TOEDTLI DRIVE,2017-000197,M63,0,5.345733,5.345733,N,N,Y,,EMS,BLS,,Atlantis,EMS rule,BLS Response,6931640.157,405941.2961,-125.387,44.67471
01/01/2017 15:37:15,300,4805 NORTHEAST GLISAN STREET,2017-000198,M18,0,5.476133,5.476133,N,N,Y,,EMS,BLS,,Atlantis,EMS rule,BLS Response,6944743.894,422246.149,-125.34047,44.72151
01/01/2017 15:38:37,321,6201 28TH STREET,2017-000199,M2,0,4.587417,4.769133,N,N,Y,,EMS,ALS,,Atlantis,ALS Rule,ALS Response,6927486.666,418718.9102,-125.40592,44.709
01/01/2017 15:44:00,611,5901 GREFSTADHEIA,2017-000200,E35,0,2.526667,2.526667,N,N,Y,,Fire,Good Intent,,Atlantis,Catchall Rule,Generic Response,6984412.182,422256.1378,-125.18811,44.72795
01/01/2017 15:44:01,300,7401 PARK DRIVE NORTHEAST,2017-000201,M12,0,5.803433,5.803433,N,N,Y,,EMS,BLS,,Atlantis,EMS rule,BLS Response,6957987.799,434201.5555,-125.29233,44.75641
01/01/2017 15:45:16,321,3188 NORTH HIGHWAY 97,2017-000202,M1,0,5.50625,5.706883,N,N,Y,,EMS,ALS,,Atlantis,ALS Rule,ALS Response,6940322.061,443168.7397,-125.3623,44.77807
01/01/2017 15:46:47,321,1406 SOUTHEAST 12TH AVENUE,2017-000203,E7,0,3.624533,5.420283,N,N,Y,,EMS,ALS,,Atlantis,ALS Rule,ALS Response,6933797.001,417422.3786,-125.38139,44.7065
01/01/2017 15:48:48,611,680 SOUTHWEST POWERHOUSE DRIVE,2017-000204,E47,0,5.227683,5.227683,N,N,Y,,Fire,Good Intent,,Atlantis,Catchall Rule,Generic Response,6936868.808,429705.1712,-125.37245,44.74064
01/01/2017 15:50:41,321,1039 SOUTH KING STREET,2017-000205,M79,0,3.829483,3.829483,N,N,Y,,EMS,ALS,,Paradise Island,ALS Rule,ALS Response,6913613.096,425163.1296,-125.46071,44.72432
01/01/2017 16:01:05,600,NORTHEAST 7TH STREET,2017-000206,E1,0,2.547133,2.547133,N,N,Y,,Fire,Good Intent,,Atlantis,Catchall Rule,Generic Response,6942027.565,435613.0599,-125.35399,44.75767
01/01/2017 16:02:29,321,6401 BENTHAVEN PLACE,2017-000207,M63,0,3.5725,3.5725,N,N,Y,,EMS,ALS,,Atlantis,ALS Rule,ALS Response,6926266.823,405500.8113,-125.40752,44.67261
01/01/2017 16:06:10,321,639 SOUTHEAST MORRISON STREET,2017-000208,E7,0,1.3464,2.896967,N,N,Y,,EMS,ALS,,Atlantis,ALS Rule,ALS Response,6932486.621,419209.9668,-125.38684,44.71118
01/01/2017 16:12:51,622,1601 SOUTHEAST BELMONT STREET,2017-000209,E48,0,2.256883,2.256883,N,N,Y,,Fire,Good Intent,,Atlantis,Catchall Rule,Generic Response,6946989.788,418017.0795,-125.33088,44.7103
01/01/2017 16:13:14,311,UNKNOWN ADDRESS,2017-000210,M18,0,5.2776,5.2776,N,N,Y,,EMS,BLS,,Atlantis,EMS rule,BLS Response,6945445.315,418552.6254,-125.33693,44.71152
01/01/2017 16:13:31,300,8301 SOUTHEAST IVON STREET,2017-000211,M39,0,4.4823,4.4823,N,N,Y,,EMS,BLS,,Atlantis,EMS rule,BLS Response,6934223.31,414107.5189,-125.37899,44.69749
01/01/2017 16:14:40,311,UNKNOWN ADDRESS,2017-000212,M2,0,4.39665,4.39665,N,N,Y,,EMS,BLS,,Atlantis,EMS rule,BLS Response,6945895.08,417115.8206,-125.33487,44.70766
01/01/2017 16:20:40,746,5601 NORTHEAST HANCOCK STREET,2017-000213,E23,0,3.964067,3.964067,N,N,Y,,Fire,False Alarm,,Atlantis,Catchall Rule,Generic Response,6943497.159,425684.0226,-125.34605,44.73072
01/01/2017 16:21:30,311,3501 CRIPPLE CREEK TRAIL,2017-000214,M63,0,5.22515,5.22515,N,N,Y,,EMS,BLS,,Atlantis,EMS rule,BLS Response,6928463.916,403347.6896,-125.39859,44.66708
01/01/2017 16:21:36,321,1515 GREENBRIAR BOULEVARD,2017-000215,E4,0,3.571517,6.033467,N,N,Y,,EMS,ALS,,Atlantis,ALS Rule,ALS Response,6930311.977,404960.5057,-125.39187,44.6718
01/01/2017 16:24:57,321,201 NORTHWEST BALTIMORE AVENUE,2017-000216,E38,0,5.098383,5.627683,N,N,Y,,EMS,ALS,,Atlantis,ALS Rule,ALS Response,6933920.249,433027.5877,-125.38455,44.74925
01/01/2017 16:28:17,321,1119 SOUTHEAST MARKET STREET,2017-000217,E7,0,3.85525,5.343367,N,N,Y,,EMS,ALS,,Atlantis,ALS Rule,ALS Response,6933524.42,416746.3232,-125.38228,44.7046
01/01/2017 16:32:08,300,701 SOUTHEAST DIVISION STREET,2017-000218,M18,0,5.78385,5.78385,N,N,Y,,EMS,BLS,,Atlantis,EMS rule,BLS Response,6954522.583,413199.1245,-125.30085,44.69834
01/01/2017 16:32:28,746,1701 SOUTHEAST 32ND AVENUE,2017-000219,E52,0,2.983417,2.983417,N,N,Y,,Fire,False Alarm,,Atlantis,Catchall Rule,Generic Response,6939291.494,418296.627,-125.3605,44.7098
01/01/2017 16:37:48,321,2580 ARAPAHOE AVENUE,2017-000220,M71,0,4.7088,4.7088,N,N,Y,,EMS,ALS,,Atlantis,ALS Rule,ALS Response,6927490.187,419020.1488,-125.40598,44.70983
01/01/2017 16:39:17,324,SERVICE ROAD,2017-000221,E61,0,2.539533,2.539533,N,N,Y,,MVA,MVA N.O.S.,,Paradise Island,Catchall Rule,Generic Response,6901211.311,431869.5509,-125.50993,44.74059
01/01/2017 16:39:45,321,4401 KAPIOLANI BOULEVARD,2017-000222,E6,0,4.4553,4.807767,N,N,Y,,EMS,ALS,,Paradise Island,ALS Rule,ALS Response,6918762.428,421644.0546,-125.44011,44.71555
01/01/2017 16:40:45,500,2802 SOUTHEAST 28TH PLACE,2017-000223,E39,0,2.746933,2.746933,N,N,Y,,Service,Service N.O.S.,,Atlantis,Catchall Rule,Generic Response,6937884.156,413419.7665,-125.36477,44.69622
01/01/2017 16:50:07,611,9601 NORTHEAST 28TH AVENUE,2017-000224,E52,0,3.331933,3.331933,N,N,Y,,Fire,Good Intent,,Atlantis,Catchall Rule,Generic Response,6938309.903,421265.7115,-125.36496,44.71777
01/01/2017 16:55:34,311,3701 WILDWOOD BOULEVARD SOUTHWEST,2017-000225,M13,0,5.540517,5.540517,N,N,Y,,EMS,BLS,,Gramsham,EMS rule,BLS Response,6936250.329,391400.7076,-125.36595,44.63566
01/01/2017 17:04:42,311,1515 GREENBRIAR BOULEVARD,2017-000226,M63,0,5.275317,5.275317,N,N,Y,,EMS,BLS,,Atlantis,EMS rule,BLS Response,6930311.977,404960.5057,-125.39187,44.6718
01/01/2017 17:05:57,671,50 SOUTHWEST DIVISION STREET,2017-000227,E1,0,4.8854,4.8854,N,N,Y,,Fire,Good Intent,,Atlantis,Catchall Rule,Generic Response,6938556.729,431974.6784,-125.36649,44.74713
01/01/2017 17:07:52,321,8780 ASTRONAUT BOULEVARD,2017-000228,M78,0,1.806467,1.806467,N,N,Y,,EMS,ALS,,Atlantis,ALS Rule,ALS Response,6994676.606,391361.9965,-125.14185,44.64498
01/01/2017 17:08:21,324,SOUTHEAST BROOKLYN STREET,2017-000229,E69,0,3.755783,3.755783,N,N,Y,,MVA,MVA N.O.S.,,Atlantis,Catchall Rule,Generic Response,6949561.265,411974.2035,-125.31962,44.69418
01/01/2017 17:09:41,611,9601 SOUTHEAST WASHINGTON STREET,2017-000230,E7,0,2.340367,2.340367,N,N,Y,,Fire,Good Intent,,Atlantis,Catchall Rule,Generic Response,6932132.203,419748.8239,-125.38833,44.71259
01/01/2017 17:13:32,311,627 SOUTHEAST MORRISON STREET,2017-000231,M71,0,5.499533,5.499533,N,N,Y,,EMS,BLS,,Atlantis,EMS rule,BLS Response,6932444.649,419212.7133,-125.387,44.71118
01/01/2017 17:15:05,324,PEARL STREET,2017-000232,E31,0,4.20525,4.20525,N,N,Y,,MVA,MVA N.O.S.,,Atlantis,Catchall Rule,Generic Response,6933950.566,401716.4072,-125.37716,44.66352
01/01/2017 17:25:20,321,8001 11TH AVENUE NORTHWEST,2017-000233,M19,0,5.4083,5.4083,N,N,Y,,EMS,ALS,,Atlantis,ALS Rule,ALS Response,6956823.364,423727.4081,-125.29442,44.72754
01/01/2017 17:26:51,321,UNKNOWN ADDRESS,2017-000234,M2,0,3.264067,3.264067,N,N,Y,,EMS,ALS,,Atlantis,ALS Rule,ALS Response,6941628.506,417372.8081,-125.35131,44.70766
01/01/2017 17:28:53,321,1601 SOUTHWEST GEROLD STREET,2017-000235,E76,0,4.570033,4.934633,N,N,Y,,EMS,ALS,,Atlantis,ALS Rule,ALS Response,6946084.955,403608.4708,-125.33104,44.6707
01/01/2017 17:28:57,324,VALMONT ROAD,2017-000236,E71,0,2.046283,2.046283,N,N,Y,,MVA,MVA N.O.S.,,Atlantis,Catchall Rule,Generic Response,6928159.329,424309.8715,-125.40465,44.72442
01/01/2017 17:32:56,321,3155 EAST BURNSIDE STREET,2017-000237,E52,0,3.875533,5.321833,N,N,Y,,EMS,ALS,,Atlantis,ALS Rule,ALS Response,6939564.901,420911.4334,-125.36005,44.71701
01/01/2017 17:45:27,671,9301 SOUTHEAST HOLGATE BOULEVARD,2017-000238,E41,0,3.6173,3.6173,N,N,Y,,Fire,Good Intent,,Atlantis,Catchall Rule,Generic Response,6934851.228,409306.5838,-125.37546,44.68445
01/01/2017 17:45:55,311,6201 EAGLE WAY,2017-000239,M71,0,3.312767,3.312767,N,N,Y,,EMS,BLS,,Atlantis,EMS rule,BLS Response,6929331.108,424698.6172,-125.40024,44.72568
01/01/2017 17:46:15,324,SERVICE ROAD,2017-000240,E38,0,4.080783,4.080783,N,N,Y,,MVA,MVA N.O.S.,,Atlantis,Catchall Rule,Generic Response,6936662.17,434867.7366,-125.37444,44.75474
01/01/2017 17:51:08,324,SERVICE ROAD,2017-000241,E54,0,3.087633,3.087633,N,N,Y,,MVA,MVA N.O.S.,,Atlantis,Catchall Rule,Generic Response,6927428.211,431723.1457,-125.40919,44.7446
01/01/2017 17:56:15,324,SOUTHWEST PLYMOUTH DRIVE,2017-000242,E53,0,2.390133,2.390133,N,N,Y,,MVA,MVA N.O.S.,,Atlantis,Catchall Rule,Generic Response,6943821.576,397568.1334,-125.33833,44.65379
01/01/2017 18:01:30,600,5901 WALNUT STREET,2017-000243,E6,0,3.17235,3.17235,N,N,Y,,Fire,Good Intent,,Atlantis,Catchall Rule,Generic Response,6922655.579,420437.9248,-125.42487,44.7129
01/01/2017 18:01:55,324,SERVICE ROAD,2017-000244,E77,0,1.8033,1.8033,N,N,Y,,MVA,MVA N.O.S.,,Atlantis,Catchall Rule,Generic Response,6994357.618,380014.8811,-125.14058,44.61385
01/01/2017 18:08:11,324,30TH STREET,2017-000245,E8,0,3.770317,3.770317,N,N,Y,,MVA,MVA N.O.S.,,Atlantis,Catchall Rule,Generic Response,6929126.985,414476.8939,-125.39864,44.69766
01/01/2017 18:11:23,321,UNKNOWN ADDRESS,2017-000246,M2,0,3.61855,3.61855,N,N,Y,,EMS,ALS,,Atlantis,ALS Rule,ALS Response,6941459.017,416993.0803,-125.35188,44.70659
01/01/2017 18:14:58,600,3930 NORTHEAST HANCOCK STREET,2017-000247,E23,0,3.386233,3.386233,N,N,Y,,Fire,Good Intent,,Atlantis,Catchall Rule,Generic Response,6942429.319,425602.6611,-125.35014,44.73032
01/01/2017 18:19:56,324,GML. KIRKEVEI/VINDVEIEN,2017-000248,E22,0,3.31085,3.31085,N,N,Y,,MVA,MVA N.O.S.,,Atlantis,Catchall Rule,Generic Response,6978028.354,424731.1446,-125.21319,44.73371
01/01/2017 18:20:42,321,7702 SOUTHEAST GRANT STREET,2017-000249,M39,0,2.586433,2.586433,N,N,Y,,EMS,ALS,,Atlantis,ALS Rule,ALS Response,6937740.539,414701.5347,-125.36562,44.6997
01/01/2017 18:24:06,611,2425 KALAKAUA AVENUE,2017-000250,E6,0,5.1646,5.1646,N,N,Y,,Fire,Good Intent,,Paradise Island,Catchall Rule,Generic Response,6919375.296,418706.3887,-125.43706,44.70761
01/01/2017 18:25:11,321,715 SOUTHEAST GRAND AVENUE,2017-000251,E7,0,2.12085,5.386283,N,N,Y,,EMS,ALS,,Atlantis,ALS Rule,ALS Response,6931940.481,419335.8791,-125.38897,44.71143
01/01/2017 18:27:18,311,2101 SOUTHWEST SIMPSON AVENUE,2017-000252,M1,0,5.825533,5.825533,N,N,Y,,EMS,BLS,,Atlantis,EMS rule,BLS Response,6934392.238,431029.0728,-125.38227,44.74385
01/01/2017 18:32:40,324,NORTHWEST FEDERAL STREET/NORTHWEST NASHVILLE AVENUE,2017-000253,E38,0,3.53635,3.53635,N,N,Y,,MVA,MVA N.O.S.,,Atlantis,Catchall Rule,Generic Response,6934540.695,436262.3876,-125.38291,44.75821
01/01/2017 18:34:16,251,3001 NORTHEAST 11TH STREET,2017-000254,E1,0,4.121417,4.121417,N,N,Y,,Fire,Explosion,,Atlantis,Catchall Rule,Generic Response,6943456.884,436575.5156,-125.34872,44.76054
01/01/2017 18:36:56,745,902 OLIVE STREET,2017-000255,E31,0,3.819867,3.819867,N,N,Y,,Fire,False Alarm,,Atlantis,Catchall Rule,Generic Response,6932856.039,402051.6559,-125.38144,44.66426
01/01/2017 18:43:04,324,SERVICE ROAD,2017-000256,E47,0,4.831867,4.831867,N,N,Y,,MVA,MVA N.O.S.,,Atlantis,Catchall Rule,Generic Response,6932360.593,432646.0343,-125.39045,44.74794
01/01/2017 18:46:42,600,4701 30TH STREET,2017-000257,E7,0,4.26885,4.26885,N,N,Y,,Fire,Good Intent,,Atlantis,Catchall Rule,Generic Response,6929362.082,419908.8919,-125.399,44.71257
01/01/2017 18:50:53,321,716 SOUTHEAST GRAND AVENUE,2017-000258,E52,0,5.041617,5.417983,N,N,Y,,EMS,ALS,,Atlantis,ALS Rule,ALS Response,6932097.186,419323.4124,-125.38836,44.71142
01/01/2017 18:51:17,611,1255 HILYARD,2017-000259,E3,0,3.818317,3.818317,N,N,Y,,Fire,Good Intent,,Atlantis,Catchall Rule,Generic Response,6935899.196,399977.6609,-125.36928,44.65908
01/01/2017 18:51:47,300,5401 ALGAROBA STREET,2017-000260,M79,0,3.774717,3.774717,N,N,Y,,EMS,BLS,,Paradise Island,EMS rule,BLS Response,6918329.631,423964.0183,-125.44231,44.72183
01/01/2017 18:54:54,600,5401 ALGAROBA STREET,2017-000261,E79,0,3.774717,3.774717,N,N,Y,,Fire,Good Intent,,Paradise Island,Catchall Rule,Generic Response,6918329.631,423964.0183,-125.44231,44.72183
01/01/2017 19:00:00,324,HAVERSHAM COURT SOUTH/WICKHAM WAY,2017-000262,E53,0,5.43085,5.43085,N,N,Y,,MVA,MVA N.O.S.,,Gramsham,Catchall Rule,Generic Response,6944314.794,389815.3755,-125.33466,44.63264
01/01/2017 19:02:39,311,3119 SOUTHEAST 12TH AVENUE,2017-000263,M39,0,5.083433,5.083433,N,N,Y,,EMS,BLS,,Atlantis,EMS rule,BLS Response,6933508.878,412906.7122,-125.38145,44.69409
01/01/2017 19:06:34,311,222 EAST BLAND STREET,2017-000264,M2,0,4.722017,4.722017,N,N,Y,,EMS,BLS,,Atlantis,EMS rule,BLS Response,6946144.082,416258.7495,-125.33372,44.70535
01/01/2017 19:07:26,710,6701 SOUTHEAST IVON STREET,2017-000265,E39,0,2.85875,2.85875,N,N,Y,,Fire,False Alarm,,Atlantis,Catchall Rule,Generic Response,6937116.726,414050.7757,-125.36787,44.69782
01/01/2017 19:13:58,311,SERVICE ROAD,2017-000266,M80,0,5.344017,5.344017,N,N,Y,,EMS,BLS,,Paradise Island,EMS rule,BLS Response,6900670.6,430835.4667,-125.51176,44.73766
01/01/2017 19:20:24,555,310 WEST KAAHUMANU AVENUE,2017-000267,E61,0,4.228367,4.228367,N,N,Y,,Service,Service N.O.S.,,Paradise Island,Catchall Rule,Generic Response,6903148.62,431180.1627,-125.50233,44.73903
01/01/2017 19:25:37,324,NORTHEAST IRVING STREET/NORTHEAST 91ST AVENUE,2017-000268,E37,0,4.70285,4.70285,N,N,Y,,MVA,MVA N.O.S.,,Atlantis,Catchall Rule,Generic Response,6955808.786,421654.7625,-125.29784,44.7217
01/01/2017 19:29:27,251,1703 NORTHEAST GLISAN STREET,2017-000269,E18,0,3.56455,3.56455,N,N,Y,,Fire,Explosion,,Atlantis,Catchall Rule,Generic Response,6952825.661,421268.7738,-125.30921,44.72016
01/01/2017 19:31:03,324,ORANGE AVENUE/WASHINGTON AVENUE,2017-000270,E78,0,4.501617,4.501617,N,N,Y,,MVA,MVA N.O.S.,,Atlantis,Catchall Rule,Generic Response,6996946.413,389643.9771,-125.13277,44.64063
01/01/2017 19:31:17,440,4501 SOUTHEAST MILLER AVENUE,2017-000271,E23,0,4.65255,4.65255,N,N,Y,,Hazardous Condition,Hazardous Condition N.O.S.,,Atlantis,Catchall Rule,Generic Response,6940203.639,430853.2976,-125.3599,44.74433
01/01/2017 19:31:52,321,CHURCH STREET WEST,2017-000272,E34,0,4.8553,5.45055,N,N,Y,,EMS,ALS,,Atlantis,ALS Rule,ALS Response,6958251.573,414227.8106,-125.28677,44.70176
01/01/2017 19:36:36,311,8602 KAMANI STREET,2017-000273,M79,0,4.605117,4.605117,N,N,Y,,EMS,BLS,,Paradise Island,EMS rule,BLS Response,6911648.366,424886.8638,-125.46819,44.72324
01/01/2017 19:38:35,700,2935 NORTHEAST GLISAN STREET,2017-000274,E52,0,4.225917,4.225917,N,N,Y,,Fire,False Alarm,,Atlantis,Catchall Rule,Generic Response,6938875.405,422302.9227,-125.36302,44.7207
01/01/2017 19:50:04,321,9903 SOUTHEAST 52ND AVENUE,2017-000275,E27,0,3.996,5.1635,N,N,Y,,EMS,ALS,,Atlantis,ALS Rule,ALS Response,6944752.464,404024.7732,-125.33625,44.67162
01/01/2017 19:50:26,321,1006 SOUTHEAST HAWTHORNE BOULEVARD,2017-000276,E7,0,3.4346,5.47505,N,N,Y,,EMS,ALS,,Atlantis,ALS Rule,ALS Response,6933251.889,417181.8028,-125.38343,44.70575
01/01/2017 19:58:18,531,301 SOUTHEAST YEW LANE,2017-000277,E23,0,4.368483,4.368483,N,N,Y,,Service,Service N.O.S.,,Atlantis,Catchall Rule,Generic Response,6940083.31,430025.302,-125.36017,44.74205
01/01/2017 20:04:12,321,1045 NORTHEAST 3RD STREET,2017-000278,M1,0,2.2754,2.2754,N,N,Y,,EMS,ALS,,Atlantis,ALS Rule,ALS Response,6940096.283,435459.0106,-125.36138,44.75693
01/01/2017 20:06:03,321,2020 KALAKAUA AVENUE,2017-000279,M79,0,4.682417,4.682417,N,N,Y,,EMS,ALS,,Paradise Island,ALS Rule,ALS Response,6917936.286,421194.5401,-125.44317,44.71418
01/01/2017 20:07:47,324,SECONDARY_LINK ROAD,2017-000280,E7,0,4.394383,4.394383,N,N,Y,,MVA,MVA N.O.S.,,Atlantis,Catchall Rule,Generic Response,6929190.791,420023.7703,-125.39968,44.71286
01/01/2017 20:15:52,321,6101 PEARL STREET,2017-000281,E6,0,3.8837,4.247483,N,N,Y,,EMS,ALS,,Paradise Island,ALS Rule,ALS Response,6921044.384,420574.3826,-125.43109,44.71301
01/01/2017 20:16:26,321,4901 WEST 7TH AVENUE,2017-000282,E31,0,3.075917,5.751717,N,N,Y,,EMS,ALS,,Atlantis,ALS Rule,ALS Response,6931328.525,402418.6593,-125.38738,44.66501
01/01/2017 20:23:49,321,401 SOUTHEAST 40TH AVENUE,2017-000283,E49,0,3.87345,4.111233,N,N,Y,,EMS,ALS,,Atlantis,ALS Rule,ALS Response,6941993.299,414656.9454,-125.34929,44.70028
01/01/2017 20:31:06,324,SOUTHEAST BUSH STREET,2017-000284,E32,0,3.027717,3.027717,N,N,Y,,MVA,MVA N.O.S.,,Atlantis,Catchall Rule,Generic Response,6945424.291,410301.4668,-125.33511,44.68892
01/01/2017 20:31:09,324,SERVICE ROAD,2017-000285,E71,0,4.6822,4.6822,N,N,Y,,MVA,MVA N.O.S.,,Atlantis,Catchall Rule,Generic Response,6927021.99,419561.1198,-125.4079,44.71123
01/01/2017 20:31:53,321,5101 EAST 13TH AVENUE,2017-000286,M3,0,3.163733,3.163733,N,N,Y,,EMS,ALS,,Atlantis,ALS Rule,ALS Response,6936479.245,399520.1232,-125.36695,44.65793
01/01/2017 20:33:17,321,7902 SOUTHEAST 47TH AVENUE,2017-000287,E27,0,3.613583,5.1002,N,N,Y,,EMS,ALS,,Atlantis,ALS Rule,ALS Response,6943153.686,405893.2715,-125.34281,44.67648
01/01/2017 20:34:50,321,UNKNOWN ADDRESS,2017-000289,M2,0,1.733267,1.733267,N,N,Y,,EMS,ALS,,Atlantis,ALS Rule,ALS Response,6942991.035,418865.5632,-125.34643,44.71197
01/01/2017 20:35:20,321,UNKNOWN ADDRESS,2017-000288,L2,0,3.526133,3.738433,N,N,Y,,EMS,ALS,,Atlantis,ALS Rule,ALS Response,6942829.734,415773.0863,-125.34633,44.70348
01/01/2017 20:37:27,321,801 WEST 7TH AVENUE,2017-000290,E31,0,3.6755,4.26325,N,N,Y,,EMS,ALS,,Atlantis,ALS Rule,ALS Response,6932545.31,402109.2025,-125.38264,44.66437
01/01/2017 20:45:40,321,4124 SOUTHEAST 82ND AVENUE,2017-000291,E55,0,1.658133,4.419567,N,N,Y,,EMS,ALS,,Atlantis,ALS Rule,ALS Response,6952842.883,408832.8452,-125.3063,44.68611
01/01/2017 20:46:48,321,3609 SOUTHEAST DIVISION STREET,2017-000292,E39,0,3.178433,5.085567,N,N,Y,,EMS,ALS,,Atlantis,ALS Rule,ALS Response,6940700.481,414083.5865,-125.35412,44.6985
01/01/2017 20:47:12,324,SERVICE ROAD,2017-000293,E7,0,3.591517,3.591517,N,N,Y,,MVA,MVA N.O.S.,,Atlantis,Catchall Rule,Generic Response,6931787.214,417115.7365,-125.38904,44.70533
01/01/2017 20:47:30,321,3155 EAST BURNSIDE STREET,2017-000294,E52,0,3.875533,5.4407,N,N,Y,,EMS,ALS,,Atlantis,ALS Rule,ALS Response,6939564.901,420911.4334,-125.36005,44.71701
01/01/2017 20:48:45,321,145 SOUTHEAST 82ND AVENUE,2017-000295,M18,0,3.6639,3.6639,N,N,Y,,EMS,ALS,,Atlantis,ALS Rule,ALS Response,6953203.187,419405.5157,-125.30733,44.71512
01/01/2017 20:59:34,311,3401 STORGATEN,2017-000296,M30,0,4.832017,4.832017,N,N,Y,,EMS,BLS,,Atlantis,EMS rule,BLS Response,6967969.878,412165.5874,-125.24899,44.69769
01/01/2017 21:08:15,321,5101 AGATE STREET,2017-000297,M3,0,4.10035,4.10035,N,N,Y,,EMS,ALS,,Atlantis,ALS Rule,ALS Response,6938705.4,395884.6598,-125.35757,44.64834
01/01/2017 21:14:51,321,2101 SOUTHWEST SIMPSON AVENUE,2017-000298,E47,0,4.948583,5.825533,N,N,Y,,EMS,ALS,,Atlantis,ALS Rule,ALS Response,6934392.238,431029.0728,-125.38227,44.74385
01/01/2017 21:16:47,321,3101 SOUTHEAST YEW LANE,2017-000299,M23,0,4.374233,4.374233,N,N,Y,,EMS,ALS,,Atlantis,ALS Rule,ALS Response,6939957.534,429912.8953,-125.36063,44.74172
01/01/2017 21:21:42,440,7401 ÃƑËŒSTERSKOGEN,2017-000300,E9,0,3.574967,3.574967,N,N,Y,,Hazardous Condition,Hazardous Condition N.O.S.,,Atlantis,Catchall Rule,Generic Response,6957973.516,397820.1667,-125.2841,44.65679
01/01/2017 21:23:29,321,3655 NORTH ATLANTIC AVENUE,2017-000301,E77,0,2.95735,6.057267,N,N,Y,,EMS,ALS,,Atlantis,ALS Rule,ALS Response,6995022.897,378182.2031,-125.13762,44.60894
01/01/2017 21:28:08,740,1515 GREENBRIAR BOULEVARD,2017-000302,E4,0,3.571517,3.571517,N,N,Y,,Fire,False Alarm,,Atlantis,Catchall Rule,Generic Response,6930311.977,404960.5057,-125.39187,44.6718
01/01/2017 21:35:46,300,1045 NORTHEAST 3RD STREET,2017-000303,M1,0,2.2754,2.2754,N,N,Y,,EMS,BLS,,Atlantis,EMS rule,BLS Response,6940096.283,435459.0106,-125.36138,44.75693
01/01/2017 21:39:57,321,1365 NORTHWEST GALVESTON AVENUE,2017-000304,M1,0,4.523967,5.101283,N,N,Y,,EMS,ALS,,Atlantis,ALS Rule,ALS Response,6932574.919,434360.8409,-125.39003,44.75268
01/01/2017 21:41:26,552,1100 SOUTHEAST DIVISION STREET,2017-000305,E73,0,2.5182,2.5182,N,N,Y,,Service,Service N.O.S.,,Atlantis,Catchall Rule,Generic Response,6933324.903,414448.9275,-125.38251,44.69828
01/01/2017 21:47:03,321,2824 SOUTHEAST 74TH AVENUE,2017-000306,E69,0,2.9301,5.352633,N,N,Y,,EMS,ALS,,Atlantis,ALS Rule,ALS Response,6950928.353,412403.9982,-125.31447,44.69558
01/01/2017 21:57:58,911,601 WEST BROADWAY,2017-000307,E31,0,3.690817,3.690817,N,N,Y,,Service,Service N.O.S.,,Atlantis,Catchall Rule,Generic Response,6932848.885,401351.6947,-125.3813,44.66234
01/01/2017 22:09:54,311,1045 NORTHEAST 3RD STREET,2017-000308,M1,0,2.2754,2.2754,N,N,Y,,EMS,BLS,,Atlantis,EMS rule,BLS Response,6940096.283,435459.0106,-125.36138,44.75693
01/01/2017 22:36:17,321,1350 PLEASANT STREET,2017-000309,E8,0,4.885983,5.758167,N,N,Y,,EMS,ALS,,Atlantis,ALS Rule,ALS Response,6923627.742,417809.3244,-125.42053,44.70587
01/01/2017 22:41:45,321,2515 SOUTHEAST CLINTON STREET,2017-000310,M39,0,3.097267,3.097267,N,N,Y,,EMS,ALS,,Atlantis,ALS Rule,ALS Response,6937067.206,413790.3973,-125.368,44.6971
01/01/2017 22:41:48,321,3564 SOUTHEAST POWELL BOULEVARD,2017-000311,E44,0,1.60865,5.357767,N,N,Y,,EMS,ALS,,Atlantis,ALS Rule,ALS Response,6940335.827,411007.4071,-125.35481,44.69002
01/01/2017 22:47:48,321,KASON'S WAY/PRESEVATION LANE,2017-000312,E56,0,4.3461,6.0821,N,N,Y,,EMS,ALS,,Gramsham,ALS Rule,ALS Response,6949417.973,381181.5461,-125.31312,44.60984
01/01/2017 22:51:26,321,NORTHEAST 82ND AVENUE/NORTHEAST EVERETT STREET,2017-000313,M18,0,3.634083,3.634083,N,N,Y,,EMS,ALS,,Atlantis,ALS Rule,ALS Response,6953377.631,420831.4702,-125.30699,44.71905
01/01/2017 22:56:59,311,1045 NORTHEAST 3RD STREET,2017-000314,M1,0,2.2754,2.2754,N,N,Y,,EMS,BLS,,Atlantis,EMS rule,BLS Response,6940096.283,435459.0106,-125.36138,44.75693
01/01/2017 22:59:01,221,SERVICE ROAD,2017-000315,E55,0,2.911033,2.911033,N,N,Y,,Fire,Explosion,,Atlantis,Catchall Rule,Generic Response,6952627.472,410484.5759,-125.3075,44.6906
01/01/2017 23:16:58,552,2801 NORTHEAST VIKING DRIVE,2017-000316,E10,0,4.74605,4.74605,N,N,Y,,Service,Service N.O.S.,,Atlantis,Catchall Rule,Generic Response,6945472.437,439073.131,-125.34155,44.76771
01/01/2017 23:20:15,730,UNKNOWN ADDRESS,2017-000317,E9,0,4.4341,4.4341,N,N,Y,,Fire,False Alarm,,Atlantis,Catchall Rule,Generic Response,6959283.776,400082.914,-125.27959,44.6632
01/01/2017 23:31:53,321,231 SOUTHEAST 12TH AVENUE,2017-000318,E7,0,3.484717,5.53445,N,N,Y,,EMS,ALS,,Atlantis,ALS Rule,ALS Response,6933872.638,420433.8483,-125.3818,44.71476
01/01/2017 23:32:51,311,5401 ALGAROBA STREET,2017-000319,M79,0,3.774717,3.774717,N,N,Y,,EMS,BLS,,Paradise Island,EMS rule,BLS Response,6918329.631,423964.0183,-125.44231,44.72183
01/01/2017 23:44:23,311,2941 SOUTHEAST HAWTHORNE BOULEVARD,2017-000320,M39,0,3.62545,3.62545,N,N,Y,,EMS,BLS,,Atlantis,EMS rule,BLS Response,6938537.498,416925.87,-125.36308,44.70592
01/01/2017 23:47:18,324,28TH STREET FRONTAGE ROAD/COLORADO AVENUE,2017-000321,E8,0,4.32525,4.32525,N,N,Y,,MVA,MVA N.O.S.,,Atlantis,Catchall Rule,Generic Response,6927915.245,417153.942,-125.40391,44.70479
01/01/2017 23:50:26,111,9101 SOUTHEAST ALDER STREET,2017-000322,E7,0,2.2459,4.728883,N,N,Y,,Fire,Structure Fire,,Atlantis,Structure Fire Rule,First Alarm Response,6933511.142,419231.3123,-125.38291,44.71141
01/01/2017 23:52:24,622,2401 EAST 17TH AVENUE,2017-000323,E3,0,3.23635,3.23635,N,N,Y,,Fire,Good Intent,,Atlantis,Catchall Rule,Generic Response,6939289.484,397946.1527,-125.3558,44.65408
01/01/2017 23:54:14,321,2501 NORTHWEST INNESWOOD PLACE,2017-000324,E10,0,4.487967,4.588117,N,N,Y,,EMS,ALS,,Atlantis,ALS Rule,ALS Response,6949245.603,432987.1217,-125.32565,44.75166
01/02/2017 00:00:24,311,2301 ALUA STREET,2017-000325,M80,0,5.814167,5.814167,N,N,Y,,EMS,BLS,,Paradise Island,EMS rule,BLS Response,6901535.345,434737.3234,-125.50937,44.74849
01/02/2017 00:01:16,744,8301 SOUTH KING STREET,2017-000326,E79,0,3.9858,3.9858,N,N,Y,,Fire,False Alarm,,Paradise Island,Catchall Rule,Generic Response,6913805.203,425648.8285,-125.46009,44.72569
01/02/2017 00:06:11,743,2502 EAST 17TH AVENUE,2017-000327,E53,0,5.04595,5.04595,N,N,Y,,Fire,False Alarm,,Atlantis,Catchall Rule,Generic Response,6939223.402,398108.6453,-125.3561,44.65451
01/02/2017 00:06:43,611,35 SOUTHWEST CENTURY DRIVE,2017-000328,E47,0,4.671633,4.671633,N,N,Y,,Fire,Good Intent,,Atlantis,Catchall Rule,Generic Response,6932229.435,432289.9409,-125.39087,44.74695
01/02/2017 00:15:55,552,225 SOUTHWEST CENTURY DRIVE,2017-000329,E54,0,5.034067,5.034067,N,N,Y,,Service,Service N.O.S.,,Atlantis,Catchall Rule,Generic Response,6932117.137,431515.9156,-125.39112,44.74481
01/02/2017 00:17:31,300,SERVICE ROAD,2017-000330,M3,0,5.2293,5.2293,N,N,Y,,EMS,BLS,,Gramsham,EMS rule,BLS Response,6936003.012,394708.2312,-125.36766,44.64467
01/02/2017 00:19:14,730,8001 SOUTHEAST TAGGART STREET,2017-000331,E39,0,2.192167,2.192167,N,N,Y,,Fire,False Alarm,,Atlantis,Catchall Rule,Generic Response,6938649.284,413260.0218,-125.3618,44.69591
01/02/2017 00:28:48,531,2169 KALIA ROAD,2017-000332,E79,0,5.09015,5.09015,N,N,Y,,Service,Service N.O.S.,,Paradise Island,Catchall Rule,Generic Response,6917487.768,419319.8781,-125.44445,44.70898
01/02/2017 00:29:34,324,MOTORWAY ROAD,2017-000333,E8,0,4.638967,4.638967,N,N,Y,,MVA,MVA N.O.S.,,Atlantis,Catchall Rule,Generic Response,6927898.653,417941.2235,-125.40416,44.70694
01/02/2017 00:32:58,321,304 SOUTHEAST 2ND AVENUE,2017-000334,E7,0,3.55145,4.985517,N,N,Y,,EMS,ALS,,Atlantis,ALS Rule,ALS Response,6931376.598,420566.601,-125.39142,44.71471
01/02/2017 00:37:49,311,401 NORTHEAST HASSALO STREET,2017-000335,M18,0,5.079417,5.079417,N,N,Y,,EMS,BLS,,Atlantis,EMS rule,BLS Response,6955167.198,422658.761,-125.30054,44.72435
01/02/2017 00:43:27,510,7803 BASELINE ROAD,2017-000336,E8,0,3.830267,3.830267,N,N,Y,,Service,Service N.O.S.,,Atlantis,Catchall Rule,Generic Response,6928869.375,414111.7952,-125.39954,44.69662
01/02/2017 00:48:51,311,9801 COTTONWOOD STREET,2017-000337,M74,0,5.147417,5.147417,N,N,Y,,EMS,BLS,,Atlantis,EMS rule,BLS Response,6941648.859,447212.2275,-125.35813,44.78936
01/02/2017 01:02:21,321,3101 ARAPAHOE AVENUE,2017-000338,M71,0,4.434067,4.434067,N,N,Y,,EMS,ALS,,Atlantis,ALS Rule,ALS Response,6927698.768,419517.3812,-125.4053,44.71122
01/02/2017 01:06:01,311,901 BASELINE ROAD,2017-000339,M1,0,5.955233,5.955233,N,N,Y,,EMS,BLS,,Atlantis,EMS rule,BLS Response,6931925.139,431821.8531,-125.39193,44.74562
01/02/2017 01:08:24,321,449 SOUTHEAST 3RD STREET,2017-000340,M23,0,4.551767,4.551767,N,N,Y,,EMS,ALS,,Atlantis,ALS Rule,ALS Response,6939755.749,430142.6792,-125.36146,44.74231
01/02/2017 01:10:53,324,SERVICE ROAD,2017-000341,E80,0,3.726533,3.726533,N,N,Y,,MVA,MVA N.O.S.,,Paradise Island,Catchall Rule,Generic Response,6904226.571,428815.3004,-125.49762,44.73274
01/02/2017 01:15:57,321,9904 SOUTHWEST MOUNT BAKER DRIVE,2017-000342,M3,0,5.240517,5.240517,N,N,Y,,EMS,ALS,,Gramsham,ALS Rule,ALS Response,6936625.967,394033.343,-125.36512,44.64293
01/02/2017 01:26:01,324,8TH AVENUE SOUTH,2017-000343,E75,0,4.611867,4.611867,N,N,Y,,MVA,MVA N.O.S.,,Atlantis,Catchall Rule,Generic Response,6942812.555,445636.6045,-125.35329,44.78524
01/02/2017 01:29:13,324,HARDWICK ROAD,2017-000344,E16,0,5.92265,5.92265,N,N,Y,,MVA,MVA N.O.S.,,Gramsham,Catchall Rule,Generic Response,6921777.296,374801.8103,-125.41757,44.58781
01/02/2017 01:37:39,321,280 CHAPELFIELD ROAD,2017-000345,M13,0,4.432317,4.432317,N,N,Y,,EMS,ALS,,Gramsham,ALS Rule,ALS Response,6937838.928,388674.582,-125.35923,44.62846
01/02/2017 01:41:21,324,B STREET/SOUTH 7TH STREET,2017-000346,E42,0,3.801233,3.801233,N,N,Y,,MVA,MVA N.O.S.,,Atlantis,Catchall Rule,Generic Response,6955242.76,407774.8445,-125.29685,44.68361
01/02/2017 01:44:33,300,UNKNOWN ADDRESS,2017-000347,M68,0,4.592533,4.592533,N,N,Y,,EMS,BLS,,Atlantis,EMS rule,BLS Response,6947303.709,438387.452,-125.33436,44.76613
01/02/2017 01:45:37,311,3822 SOUTHEAST CENTER STREET,2017-000348,M32,0,4.9102,4.9102,N,N,Y,,EMS,BLS,,Atlantis,EMS rule,BLS Response,6941215.133,409961.3676,-125.35119,44.6873
01/02/2017 01:50:44,321,TRINIDAD ROAD/SAMAR ROAD,2017-000349,E77,0,5.518133,6.95655,N,N,Y,,EMS,ALS,,Atlantis,ALS Rule,ALS Response,6993418.024,372433.3515,-125.14251,44.59294
01/02/2017 02:16:39,324,SOUTHEAST LOCUST AVENUE/SOUTHEAST HARRISON STREET,2017-000350,E73,0,4.343917,4.343917,N,N,Y,,MVA,MVA N.O.S.,,Atlantis,Catchall Rule,Generic Response,6935308.777,415876.202,-125.37523,44.70252
01/02/2017 02:19:29,611,9901 NORTHWEST RIVERFRONT STREET,2017-000351,E38,0,5.02005,5.02005,N,N,Y,,Fire,Good Intent,,Atlantis,Catchall Rule,Generic Response,6934465.106,432798.2119,-125.3824,44.74871
01/02/2017 02:21:15,622,4124 SOUTHEAST 82ND AVENUE,2017-000352,E55,0,1.71405,1.71405,N,N,Y,,Fire,Good Intent,,Atlantis,Catchall Rule,Generic Response,6952887.706,408829.9747,-125.30613,44.68611
01/02/2017 02:22:45,300,7501 SOUTHEAST MAIN STREET,2017-000353,M39,0,4.63795,4.63795,N,N,Y,,EMS,BLS,,Atlantis,EMS rule,BLS Response,6937068.429,417586.5751,-125.36887,44.70749
01/02/2017 02:48:11,321,CLOVERLY DRIVE,2017-000354,E56,0,4.635717,5.957517,N,N,Y,,EMS,ALS,,Gramsham,ALS Rule,ALS Response,6948900.126,382726.1168,-125.31545,44.61398
01/02/2017 02:49:53,715,5401 NORTHEAST GLISAN STREET,2017-000355,E72,0,1.631783,1.631783,N,N,Y,,Fire,False Alarm,,Atlantis,Catchall Rule,Generic Response,6943974.963,421801.9775,-125.34332,44.72017
01/02/2017 02:54:39,324,SERVICE ROAD,2017-000356,E78,0,4.953533,4.953533,N,N,Y,,MVA,MVA N.O.S.,,Atlantis,Catchall Rule,Generic Response,6998669.331,393368.3116,-125.12698,44.6511
01/02/2017 02:55:50,311,7602 18TH STREET,2017-000357,M63,0,5.6275,5.6275,N,N,Y,,EMS,BLS,,Atlantis,EMS rule,BLS Response,6924957.086,416266.9183,-125.41506,44.70187
01/02/2017 03:00:38,321,1044 AUAHI STREET,2017-000358,E14,0,3.990833,3.996133,N,N,Y,,EMS,ALS,,Paradise Island,ALS Rule,ALS Response,6912441.337,424305.0887,-125.46501,44.72178
01/02/2017 03:02:53,324,SOUTHEAST BROOKLYN STREET/SOUTHEAST 20TH AVENUE,2017-000359,E73,0,3.269333,3.269333,N,N,Y,,MVA,MVA N.O.S.,,Atlantis,Catchall Rule,Generic Response,6935573.679,413066.8898,-125.37356,44.69487
01/02/2017 03:06:45,300,5401 NORTHEAST BENNINGTON WAY,2017-000360,M1,0,5.459767,5.459767,N,N,Y,,EMS,BLS,,Atlantis,EMS rule,BLS Response,6944104.941,440462.2596,-125.34713,44.77129
01/02/2017 03:07:05,324,RESIDENTIAL ROAD,2017-000361,E49,0,3.239683,3.239683,N,N,Y,,MVA,MVA N.O.S.,,Atlantis,Catchall Rule,Generic Response,6945134.324,417043.2797,-125.33778,44.70733
01/02/2017 03:20:27,321,3340 DARTMOUTH AVENUE,2017-000362,E4,0,4.592117,4.857833,N,N,Y,,EMS,ALS,,Atlantis,ALS Rule,ALS Response,6928772.116,410868.7051,-125.39916,44.68772
01/02/2017 03:22:57,321,201 SOUTHEAST 29TH AVENUE,2017-000363,E52,0,2.759533,4.964717,N,N,Y,,EMS,ALS,,Atlantis,ALS Rule,ALS Response,6938620.552,420191.0153,-125.36351,44.71488
01/02/2017 03:26:49,740,8001 ÃƑËŒSTERSKOGEN,2017-000364,E9,0,4.61365,4.61365,N,N,Y,,Fire,False Alarm,,Atlantis,Catchall Rule,Generic Response,6958529.507,396227.206,-125.28161,44.65252
01/02/2017 03:31:15,154,UNKNOWN ADDRESS,2017-000365,E49,0,1.966583,1.966583,N,N,Y,,Fire,Outdoor Fire,,Atlantis,Catchall Rule,Generic Response,6945300.846,415409.8276,-125.33676,44.70289
01/02/2017 03:33:35,324,KEEAUMOKU STREET,2017-000366,E79,0,4.190217,4.190217,N,N,Y,,MVA,MVA N.O.S.,,Paradise Island,Catchall Rule,Generic Response,6916698.187,426403.4312,-125.44915,44.72824
01/02/2017 03:38:14,321,2631 SOUTHEAST HAWTHORNE BOULEVARD,2017-000367,E52,0,3.4489,4.1213,N,N,Y,,EMS,ALS,,Atlantis,ALS Rule,ALS Response,6937662.494,416970.8093,-125.36645,44.7059
01/02/2017 03:38:26,300,UNKNOWN ADDRESS,2017-000368,M30,0,6.112967,6.112967,N,N,Y,,EMS,BLS,,Atlantis,EMS rule,BLS Response,6959283.776,400082.914,-125.27959,44.6632
01/02/2017 03:39:54,321,UNKNOWN ADDRESS,2017-000369,L49,0,2.1758,4.35295,N,N,Y,,EMS,ALS,,Atlantis,ALS Rule,ALS Response,6943978.48,415025.9792,-125.34175,44.70162
01/02/2017 03:42:02,111,2701 SOUTH KING STREET,2017-000370,E79,0,3.916333,5.474817,N,N,Y,,Fire,Structure Fire,,Paradise Island,Structure Fire Rule,First Alarm Response,6919913.565,423377.9626,-125.43609,44.72049
01/02/2017 03:46:47,321,8601 JOHAN MARKUSSENS VEI,2017-000371,M68,0,6.332567,6.332567,N,N,Y,,EMS,ALS,,Atlantis,ALS Rule,ALS Response,6964072.426,443256.9783,-125.27101,44.7822
01/02/2017 04:08:37,311,3564 SOUTHEAST POWELL BOULEVARD,2017-000372,M39,0,4.59965,4.59965,N,N,Y,,EMS,BLS,,Atlantis,EMS rule,BLS Response,6940335.827,411007.4071,-125.35481,44.69002
01/02/2017 04:19:09,311,SOUTHEAST FOSTER ROAD,2017-000373,M32,0,4.359567,4.359567,N,N,Y,,EMS,BLS,,Atlantis,EMS rule,BLS Response,6948809.121,407445.6017,-125.32146,44.68165
01/02/2017 04:23:30,321,3100 ARAPAHOE AVENUE,2017-000374,E7,0,3.733117,4.916467,N,N,Y,,EMS,ALS,,Atlantis,ALS Rule,ALS Response,6929608.464,419054.8309,-125.39785,44.71028
01/02/2017 04:41:00,311,3901 AGATE STREET,2017-000375,M3,0,3.361783,3.361783,N,N,Y,,EMS,BLS,,Atlantis,EMS rule,BLS Response,6939020.976,397493.9914,-125.35673,44.6528
01/02/2017 04:48:55,321,4111 SOUTHEAST WOODSTOCK BOULEVARD,2017-000376,E27,0,1.152517,4.56485,N,N,Y,,EMS,ALS,,Atlantis,ALS Rule,ALS Response,6941741.528,404590.9343,-125.34793,44.67268
01/02/2017 04:56:16,611,SERVICE ROAD,2017-000377,E23,0,5.313017,5.313017,N,N,Y,,Fire,Good Intent,,Atlantis,Catchall Rule,Generic Response,6937034.596,430197.1366,-125.37192,44.74201
01/02/2017 05:08:37,311,5901 CLEMSON STREET,2017-000378,M13,0,4.601317,4.601317,N,N,Y,,EMS,BLS,,Gramsham,EMS rule,BLS Response,6938371.733,382281.3931,-125.35571,44.61104
01/02/2017 05:14:50,730,6301 DEMERS AVENUE,2017-000379,E74,0,4.26515,4.26515,N,N,Y,,Fire,False Alarm,,Atlantis,Catchall Rule,Generic Response,6942077.52,449473.3712,-125.35701,44.79563
01/02/2017 05:20:59,311,UNKNOWN ADDRESS,2017-000380,M2,0,1.733267,1.733267,N,N,Y,,EMS,BLS,,Atlantis,EMS rule,BLS Response,6942991.035,418865.5632,-125.34643,44.71197
01/02/2017 05:21:11,311,4805 NORTHEAST GLISAN STREET,2017-000381,M23,0,5.4302,5.4302,N,N,Y,,EMS,BLS,,Atlantis,EMS rule,BLS Response,6944743.894,422246.149,-125.34047,44.72151
01/02/2017 05:25:23,743,1915 NORTHEAST 33RD AVENUE,2017-000382,E23,0,3.575433,3.575433,N,N,Y,,Fire,False Alarm,,Atlantis,Catchall Rule,Generic Response,6939914.86,425992.7267,-125.35989,44.73098
01/02/2017 05:27:15,531,7507 SOUTHEAST YAMHILL STREET,2017-000383,E18,0,3.520067,3.520067,N,N,Y,,Service,Service N.O.S.,,Atlantis,Catchall Rule,Generic Response,6951361.07,417799.8891,-125.31404,44.71042
01/02/2017 05:54:17,111,UNKNOWN ADDRESS,2017-000384,E2,0,2.856133,5.8437,N,N,Y,,Fire,Structure Fire,,Atlantis,Structure Fire Rule,First Alarm Response,6944328.329,418692.5754,-125.34125,44.71172
01/02/2017 05:55:03,321,2501 GRANDVIEW AVENUE,2017-000385,E8,0,4.805733,5.428333,N,N,Y,,EMS,ALS,,Atlantis,ALS Rule,ALS Response,6924822.773,418728.193,-125.41615,44.70858
01/02/2017 05:55:28,321,1 SOUTHWEST WILLOW AVENUE,2017-000386,E53,0,4.705867,6.019317,N,N,Y,,EMS,ALS,,Atlantis,ALS Rule,ALS Response,6947439.72,394827.7933,-125.32382,44.64688
01/02/2017 06:18:55,735,901 BASELINE ROAD,2017-000387,E47,0,4.3627,4.3627,N,N,Y,,Fire,False Alarm,,Atlantis,Catchall Rule,Generic Response,6931925.139,431821.8531,-125.39193,44.74562
01/02/2017 06:28:29,611,4401 KAPIOLANI BOULEVARD,2017-000388,E6,0,4.4553,4.4553,N,N,Y,,Fire,Good Intent,,Paradise Island,Catchall Rule,Generic Response,6918762.428,421644.0546,-125.44011,44.71555
01/02/2017 06:29:58,300,NORTHEAST 22ND AVENUE/NORTHEAST THOMPSON STREET,2017-000389,M23,0,4.536483,4.536483,N,N,Y,,EMS,BLS,,Atlantis,EMS rule,BLS Response,6937038.11,426919.6571,-125.37115,44.73304
01/02/2017 06:35:30,324,NORTHWEST STATE STREET/NORTHWEST TUMALO AVENUE,2017-000390,E38,0,4.352367,4.352367,N,N,Y,,MVA,MVA N.O.S.,,Atlantis,Catchall Rule,Generic Response,6934996.975,434236.5143,-125.38069,44.75274
01/02/2017 06:37:26,311,3003 HAMILTON ROAD,2017-000391,M13,0,4.960233,4.960233,N,N,Y,,EMS,BLS,,Gramsham,EMS rule,BLS Response,6943091.605,388447.9256,-125.33903,44.6287
01/02/2017 06:38:03,322,SERVICE ROAD,2017-000392,E55,0,3.194683,3.194683,N,N,Y,,MVA,MVA N.O.S.,,Atlantis,Catchall Rule,Generic Response,6952331.363,411013.4352,-125.30876,44.692
01/02/2017 06:41:17,321,1901 COLUMBIA DRIVE,2017-000393,M78,0,3.757967,3.757967,N,N,Y,,EMS,ALS,,Atlantis,ALS Rule,ALS Response,6995469.443,389720.1576,-125.13845,44.64061
01/02/2017 06:41:19,321,NORTHEAST REVERE AVENUE/BEND PARKWAY,2017-000394,L38,0,4.042833,4.51405,N,N,Y,,EMS,ALS,,Atlantis,ALS Rule,ALS Response,6939084.942,438020.7154,-125.36586,44.76377
01/02/2017 06:44:04,600,SOUTHEAST ALDER STREET/SOUTHEAST 38TH AVENUE,2017-000395,E2,0,3.119417,3.119417,N,N,Y,,Fire,Good Intent,,Atlantis,Catchall Rule,Generic Response,6941442.652,418838.9113,-125.35236,44.71164
01/02/2017 06:59:12,700,2001 SHOUP PLACE,2017-000396,E54,0,4.820083,4.820083,N,N,Y,,Fire,False Alarm,,Atlantis,Catchall Rule,Generic Response,6928933.129,433918.178,-125.40392,44.75086
01/02/2017 07:04:45,311,8801 OLD FAITHFUL ROAD,2017-000397,M63,0,5.408083,5.408083,N,N,Y,,EMS,BLS,,Gramsham,EMS rule,BLS Response,6919638.638,409644.1858,-125.43392,44.68285
01/02/2017 07:12:29,733,9902 HALEAKALA HIGHWAY,2017-000398,E80,0,3.812683,3.812683,N,N,Y,,Fire,False Alarm,,Paradise Island,Catchall Rule,Generic Response,6909357.073,429868.9705,-125.47817,44.73649
01/02/2017 07:23:14,531,1115 YOUNG STREET,2017-000399,E79,0,3.571133,3.571133,N,N,Y,,Service,Service N.O.S.,,Paradise Island,Catchall Rule,Generic Response,6914801.886,425907.4979,-125.45632,44.72656
01/02/2017 07:31:56,321,8202 SOUTHEAST 6TH AVENUE,2017-000400,E73,0,3.389733,5.13525,N,N,Y,,EMS,ALS,,Atlantis,ALS Rule,ALS Response,6932059.047,414312.1059,-125.38734,44.6977
01/02/2017 07:35:12,324,PRIMARY_LINK ROAD,2017-000401,E50,0,4.86625,4.86625,N,N,Y,,MVA,MVA N.O.S.,,Gramsham,Catchall Rule,Generic Response,6915940.28,411279.4833,-125.4485,44.6867
01/02/2017 07:42:16,500,3801 NORTHEAST JONES ROAD,2017-000402,E10,0,5.059267,5.059267,N,N,Y,,Service,Service N.O.S.,,Atlantis,Catchall Rule,Generic Response,6944716.847,439442.0327,-125.34454,44.76859
01/02/2017 07:46:54,324,TOM SWAMP ROAD,2017-000403,E67,0,5.022633,5.022633,N,N,Y,,MVA,MVA N.O.S.,,Gramsham,Catchall Rule,Generic Response,6918624.651,391157.661,-125.43348,44.63206
01/02/2017 07:53:19,311,3564 SOUTHEAST POWELL BOULEVARD,2017-000404,M39,0,4.59965,4.59965,N,N,Y,,EMS,BLS,,Atlantis,EMS rule,BLS Response,6940335.827,411007.4071,-125.35481,44.69002
01/02/2017 08:08:22,154,1777 ALA MOANA BLVD,2017-000405,E79,0,3.9006,3.9006,N,N,Y,,Fire,Outdoor Fire,,Paradise Island,Catchall Rule,Generic Response,6916198.972,421220.4838,-125.44985,44.71396
01/02/2017 08:10:36,733,4501 HARVARD LANE,2017-000406,E4,0,3.824583,3.824583,N,N,Y,,Fire,False Alarm,,Atlantis,Catchall Rule,Generic Response,6929214.566,409647.6155,-125.39718,44.68445
01/02/2017 08:11:12,324,WEST 16TH AVENUE,2017-000407,E31,0,4.88855,4.88855,N,N,Y,,MVA,MVA N.O.S.,,Atlantis,Catchall Rule,Generic Response,6932899.91,398608.8625,-125.38047,44.65484
01/02/2017 08:12:04,611,5101 SOUTHEAST POWELL BOULEVARD,2017-000408,E44,0,4.128733,4.128733,N,N,Y,,Fire,Good Intent,,Atlantis,Catchall Rule,Generic Response,6943690.185,411255.3996,-125.34199,44.69125
01/02/2017 08:16:44,321,4328 SOUTHEAST 82ND AVENUE,2017-000409,E55,0,2.2935,5.312583,N,N,Y,,EMS,ALS,,Atlantis,ALS Rule,ALS Response,6952781.199,408178.6446,-125.30639,44.68431
01/02/2017 08:19:34,321,2045 SOUTHEAST HAWTHORNE BOULEVARD,2017-000410,E52,0,4.2432,4.420367,N,N,Y,,EMS,ALS,,Atlantis,ALS Rule,ALS Response,6936091.7,417078.7078,-125.3725,44.70594
01/02/2017 08:20:37,321,2ND STREET SOUTHEAST,2017-000411,M19,0,1.7242,1.7242,N,N,Y,,EMS,ALS,,Atlantis,ALS Rule,ALS Response,6962724.963,421610.0435,-125.27127,44.7227
01/02/2017 08:23:33,715,3827 SOUTHEAST FRANCIS STREET,2017-000412,E44,0,2.2831,2.2831,N,N,Y,,Fire,False Alarm,,Atlantis,Catchall Rule,Generic Response,6941289.036,410404.5433,-125.35101,44.68852
01/02/2017 08:24:22,324,SERVICE ROAD,2017-000413,E66,0,7.178167,7.178167,N,N,Y,,MVA,MVA N.O.S.,,Atlantis,Catchall Rule,Generic Response,7004014.36,451205.8678,-125.11917,44.81033
01/02/2017 08:30:35,324,1601 CENTRAL CAMPUS MALL,2017-000414,E8,0,4.456133,4.456133,N,N,Y,,MVA,MVA N.O.S.,,Atlantis,Catchall Rule,Generic Response,6924435.072,417390.2233,-125.41733,44.70486
01/02/2017 08:33:47,311,UNKNOWN ADDRESS,2017-000415,M63,0,5.3167,5.3167,N,N,Y,,EMS,BLS,,Atlantis,EMS rule,BLS Response,6933141.412,407588.2921,-125.38163,44.67947
01/02/2017 08:40:30,324,UNITED STATES HIGHWAY 63,2017-000416,E34,0,1.58495,1.58495,N,N,Y,,MVA,MVA N.O.S.,,Atlantis,Catchall Rule,Generic Response,6960469.712,417194.6251,-125.27893,44.71025
01/02/2017 08:42:08,311,3325 28TH STREET,2017-000417,M71,0,3.604083,3.604083,N,N,Y,,EMS,BLS,,Atlantis,EMS rule,BLS Response,6928059.339,426162.2589,-125.40546,44.72948
01/02/2017 08:42:40,700,2315 NORTHEAST BROADWAY,2017-000418,E17,0,4.605967,4.605967,N,N,Y,,Fire,False Alarm,,Atlantis,Catchall Rule,Generic Response,6937324.42,425528.327,-125.36973,44.72928
01/02/2017 08:47:52,324,HIGH ALLEY/EAST 14TH ALLEY,2017-000419,E3,0,4.5378,4.5378,N,N,Y,,MVA,MVA N.O.S.,,Atlantis,Catchall Rule,Generic Response,6933989.23,399133.4285,-125.37641,44.65646
01/02/2017 08:49:57,321,SOLANA SHORES DRIVE,2017-000420,M78,0,5.063383,5.063383,N,N,Y,,EMS,ALS,,Atlantis,ALS Rule,ALS Response,6999398.329,393065.1118,-125.12412,44.65038
01/02/2017 08:51:12,324,HANA HIGHWAY/DAIRY ROAD,2017-000421,E80,0,3.819,3.819,N,N,Y,,MVA,MVA N.O.S.,,Paradise Island,Catchall Rule,Generic Response,6909909.421,429213.9187,-125.47589,44.73479
01/02/2017 09:07:49,324,SERVICE ROAD,2017-000422,E53,0,3.780383,3.780383,N,N,Y,,MVA,MVA N.O.S.,,Atlantis,Catchall Rule,Generic Response,6943938.258,395219.8379,-125.33735,44.64738
01/02/2017 09:09:05,321,1776 UNIVERSITY AVENUE,2017-000423,E6,0,4.28615,4.9165,N,N,Y,,EMS,ALS,,Paradise Island,ALS Rule,ALS Response,6920494.334,424547.173,-125.43414,44.72379
01/02/2017 09:09:06,311,3001 SOUTHEAST 12TH AVENUE,2017-000424,M39,0,5.407917,5.407917,N,N,Y,,EMS,BLS,,Atlantis,EMS rule,BLS Response,6933800.825,417359.4306,-125.38136,44.70633
01/02/2017 09:09:36,353,UNKNOWN ADDRESS,2017-000425,E34,0,4.533717,4.533717,N,N,Y,,Rescue,Rescue N.O.S.,,Atlantis,Catchall Rule,Generic Response,6958779.979,414626.8362,-125.28483,44.70294
01/02/2017 09:18:03,733,8701 MAPLETON AVENUE,2017-000426,E6,0,2.586683,2.586683,N,N,Y,,Fire,False Alarm,,Paradise Island,Catchall Rule,Generic Response,6922159.846,421744.921,-125.42708,44.7164
01/02/2017 09:18:35,311,1045 NORTHEAST 3RD STREET,2017-000427,M1,0,2.2754,2.2754,N,N,Y,,EMS,BLS,,Atlantis,EMS rule,BLS Response,6940096.283,435459.0106,-125.36138,44.75693
01/02/2017 09:20:03,411,301 CEDAR AVENUE,2017-000428,E71,0,4.433867,4.433867,N,N,Y,,Hazardous Condition,Hazardous Condition N.O.S.,,Atlantis,Catchall Rule,Generic Response,6924486.305,424239.8217,-125.41874,44.72362
01/02/2017 09:21:44,311,4403 NORTH ATLANTIC AVENUE,2017-000429,M78,0,5.650883,5.650883,N,N,Y,,EMS,BLS,,Atlantis,EMS rule,BLS Response,6995660.371,383506.915,-125.13635,44.62362
01/02/2017 09:21:53,321,"2002,2004,2006 NORTHEAST 15TH AVENUE",2017-000430,E17,0,4.012267,5.237017,N,N,Y,,EMS,ALS,,Atlantis,ALS Rule,ALS Response,6935192.301,426315.1014,-125.3781,44.73108
01/02/2017 09:22:09,321,1501 NORTHEAST ALAMEDA STREET,2017-000431,M12,0,3.5143,3.5143,N,N,Y,,EMS,ALS,,Atlantis,ALS Rule,ALS Response,6951485.665,427721.4692,-125.31584,44.73761
01/02/2017 09:22:21,300,5003 BROADWAY,2017-000432,M71,0,5.408117,5.408117,N,N,Y,,EMS,BLS,,Paradise Island,EMS rule,BLS Response,6922180.971,425490.7062,-125.42788,44.72666
01/02/2017 09:25:35,611,6101 NORTHWEST ITHACA AVENUE,2017-000433,E38,0,5.037167,5.037167,N,N,Y,,Fire,Good Intent,,Atlantis,Catchall Rule,Generic Response,6932264.519,434931.4287,-125.39135,44.75419
01/02/2017 09:40:22,321,1626 NORTHWEST WALL STREET,2017-000434,E38,0,3.756033,4.466633,N,N,Y,,EMS,ALS,,Atlantis,ALS Rule,ALS Response,6938793.239,437612.2156,-125.36689,44.76261
01/02/2017 09:42:15,321,2105 NORTHEAST 42ND AVENUE,2017-000435,M23,0,3.3653,3.3653,N,N,Y,,EMS,ALS,,Atlantis,ALS Rule,ALS Response,6942976.554,426181.4616,-125.34817,44.732
01/02/2017 09:53:26,321,4000 SOUTHEAST 82ND AVENUE,2017-000436,E55,0,2.346717,5.276633,N,N,Y,,EMS,ALS,,Atlantis,ALS Rule,ALS Response,6953444.939,409017.305,-125.30403,44.68671
01/02/2017 09:59:56,321,2285 28TH STREET,2017-000437,M71,0,1.852483,1.852483,N,N,Y,,EMS,ALS,,Atlantis,ALS Rule,ALS Response,6928055.664,422942.8119,-125.40472,44.72066
01/02/2017 10:02:13,321,301 SOUTHEAST YEW LANE,2017-000438,M23,0,4.368483,4.368483,N,N,Y,,EMS,ALS,,Atlantis,ALS Rule,ALS Response,6940083.31,430025.302,-125.36017,44.74205
01/02/2017 10:04:02,721,5104 SOUTH BROADWAY,2017-000439,E4,0,3.055167,3.055167,N,N,Y,,Fire,False Alarm,,Atlantis,Catchall Rule,Generic Response,6929761.502,408997.6581,-125.39492,44.68276
01/02/2017 10:07:17,700,9801 MAPLETON AVENUE,2017-000440,E6,0,3.094333,3.094333,N,N,Y,,Fire,False Alarm,,Paradise Island,Catchall Rule,Generic Response,6921173.269,421698.1524,-125.43086,44.71611
01/02/2017 10:10:14,733,6101 CRIPPLE CREEK SQUARE,2017-000441,E31,0,3.722033,3.722033,N,N,Y,,Fire,False Alarm,,Atlantis,Catchall Rule,Generic Response,6928581.012,403046.1141,-125.39807,44.66627
01/02/2017 10:11:42,311,8301 SOUTHEAST ASH STREET,2017-000442,M39,0,5.645467,5.645467,N,N,Y,,EMS,BLS,,Atlantis,EMS rule,BLS Response,6935598.372,420581.5346,-125.37521,44.71545
01/02/2017 10:16:36,311,4001 ARAPAHOE AVENUE,2017-000443,M63,0,5.9371,5.9371,N,N,Y,,EMS,BLS,,Atlantis,EMS rule,BLS Response,6926728.012,419535.1379,-125.40903,44.71111
01/02/2017 10:21:50,321,3201 EAST 19TH AVENUE,2017-000444,M3,0,3.3948,3.3948,N,N,Y,,EMS,ALS,,Atlantis,ALS Rule,ALS Response,6938723.828,397147.0091,-125.35779,44.6518
01/02/2017 10:22:07,311,1100 SOUTHEAST DIVISION STREET,2017-000445,M2,0,6.019233,6.019233,N,N,Y,,EMS,BLS,,Atlantis,EMS rule,BLS Response,6933324.903,414448.9275,-125.38251,44.69828
01/02/2017 10:25:47,511,4901 SOUTHEAST FOSTER ROAD,2017-000446,E32,0,3.750067,3.750067,N,N,Y,,Service,Service N.O.S.,,Atlantis,Catchall Rule,Generic Response,6948016.844,407880.5931,-125.3246,44.68272
01/02/2017 10:28:03,321,UNKNOWN ADDRESS,2017-000447,E49,0,2.1758,3.946417,N,N,Y,,EMS,ALS,,Atlantis,ALS Rule,ALS Response,6943978.48,415025.9792,-125.34175,44.70162
01/02/2017 10:32:26,321,SOUTHEAST 72ND AVENUE/SOUTHEAST GRANT STREET,2017-000448,E69,0,1.767667,5.107333,N,N,Y,,EMS,ALS,,Atlantis,ALS Rule,ALS Response,6950426.463,414333.8266,-125.31683,44.70078
01/02/2017 10:34:33,321,5001 ARAPAHOE AVENUE,2017-000449,E8,0,4.677083,5.098833,N,N,Y,,EMS,ALS,,Atlantis,ALS Rule,ALS Response,6925799.663,419320.8036,-125.41254,44.71037
01/02/2017 10:34:59,730,936 SOUTHEAST POWELL BOULEVARD,2017-000450,E73,0,2.135233,2.135233,N,N,Y,,Fire,False Alarm,,Atlantis,Catchall Rule,Generic Response,6932845.042,413149.9803,-125.38406,44.69464
01/02/2017 10:45:00,321,901 BASELINE ROAD,2017-000451,E47,0,4.3627,5.955233,N,N,Y,,EMS,ALS,,Atlantis,ALS Rule,ALS Response,6931925.139,431821.8531,-125.39193,44.74562
01/02/2017 10:50:06,321,RESIDENTIAL ROAD,2017-000452,M3,0,5.205683,5.205683,N,N,Y,,EMS,ALS,,Atlantis,ALS Rule,ALS Response,6935155.633,395663.3652,-125.37113,44.64715
01/02/2017 10:50:23,322,UNKNOWN ADDRESS,2017-000453,E78,0,5.409617,5.409617,N,N,Y,,MVA,MVA N.O.S.,,Atlantis,Catchall Rule,Generic Response,6996851.33,397225.3674,-125.1348,44.66138
01/02/2017 10:52:26,611,9401 HAWTHORN AVENUE,2017-000454,E6,0,4.423433,4.423433,N,N,Y,,Fire,Good Intent,,Paradise Island,Catchall Rule,Generic Response,6922190.605,426559.9341,-125.4281,44.72959
01/02/2017 10:53:01,321,5701 SOUTHWEST AVERY AVENUE,2017-000455,E9,0,3.9706,6.218983,N,N,Y,,EMS,ALS,,Atlantis,ALS Rule,ALS Response,6956792.089,401577.9393,-125.28949,44.66689
01/02/2017 10:55:25,311,6101 22ND STREET,2017-000456,M71,0,5.0962,5.0962,N,N,Y,,EMS,BLS,,Atlantis,EMS rule,BLS Response,6926146.301,418985.0642,-125.41113,44.70951
01/02/2017 11:00:09,321,1350 20TH STREET,2017-000457,E8,0,4.707417,5.888683,N,N,Y,,EMS,ALS,,Atlantis,ALS Rule,ALS Response,6925518.771,419122.7499,-125.41357,44.70978
01/02/2017 11:02:29,311,1255 HILYARD,2017-000458,M3,0,3.891433,3.891433,N,N,Y,,EMS,BLS,,Atlantis,EMS rule,BLS Response,6935717.122,399929.782,-125.36997,44.65892
01/02/2017 11:03:22,621,1001 5TH AVENUE NORTH,2017-000459,E74,0,4.0934,4.0934,N,N,Y,,Fire,Good Intent,,Atlantis,Catchall Rule,Generic Response,6940769.895,451145.4702,-125.36242,44.79999
01/02/2017 11:06:04,324,SOUTHEAST POWELL BOULEVARD,2017-000460,E32,0,3.354183,3.354183,N,N,Y,,MVA,MVA N.O.S.,,Atlantis,Catchall Rule,Generic Response,6945679.687,411015.9715,-125.3343,44.69092
01/02/2017 11:07:34,311,9501 SOUTHEAST STARK STREET,2017-000461,M71,0,4.266517,4.266517,N,N,Y,,EMS,BLS,,Atlantis,EMS rule,BLS Response,6932510.196,420013.3558,-125.38694,44.71338
01/02/2017 11:08:06,311,UNKNOWN ADDRESS,2017-000462,M2,0,1.733267,1.733267,N,N,Y,,EMS,BLS,,Atlantis,EMS rule,BLS Response,6942991.035,418865.5632,-125.34643,44.71197
01/02/2017 11:10:38,611,SOUTHEAST 7TH AVENUE/SOUTHEAST POWELL BOULEVARD,2017-000463,E73,0,2.59475,2.59475,N,N,Y,,Fire,Good Intent,,Atlantis,Catchall Rule,Generic Response,6932153.736,413357.1401,-125.38676,44.6951
01/02/2017 11:11:51,324,EAST LAKE SAMMAMISH PARKWAY SOUTHEAST,2017-000464,E12,0,5.088967,5.088967,N,N,Y,,MVA,MVA N.O.S.,,Atlantis,Catchall Rule,Generic Response,6953577.706,434528.1472,-125.30936,44.75659
01/02/2017 11:12:57,500,SOUTHEAST GLADSTONE STREET,2017-000465,E41,0,3.3511,3.3511,N,N,Y,,Service,Service N.O.S.,,Atlantis,Catchall Rule,Generic Response,6936452.635,410064.5356,-125.36949,44.68679
01/02/2017 11:15:44,611,31ST STREET/IRON FORGE PLACE,2017-000466,E71,0,2.80655,2.80655,N,N,Y,,Fire,Good Intent,,Atlantis,Catchall Rule,Generic Response,6929786.499,423564.4621,-125.39822,44.72265
01/02/2017 11:18:42,611,UNKNOWN ADDRESS,2017-000467,E2,0,3.672233,3.672233,N,N,Y,,Fire,Good Intent,,Atlantis,Catchall Rule,Generic Response,6944893.278,419313.7058,-125.33922,44.71351
01/02/2017 11:19:58,321,6501 SOUTHEAST 28TH AVENUE,2017-000468,E44,0,3.939933,4.386217,N,N,Y,,EMS,ALS,,Atlantis,ALS Rule,ALS Response,6937475.846,411085.1861,-125.3658,44.68976
01/02/2017 11:22:37,611,3701 WILDWOOD BOULEVARD SOUTHWEST,2017-000469,E13,0,5.540517,5.540517,N,N,Y,,Fire,Good Intent,,Gramsham,Catchall Rule,Generic Response,6936250.329,391400.7076,-125.36595,44.63566
01/02/2017 11:26:49,324,NORTHEAST 51ST AVENUE/NORTHEAST THOMPSON STREET,2017-000470,E60,0,3.57435,3.57435,N,N,Y,,MVA,MVA N.O.S.,,Atlantis,Catchall Rule,Generic Response,6945415.797,426441.8288,-125.33886,44.73311
01/02/2017 11:26:59,522,5001 WALNUT STREET,2017-000471,E71,0,3.9806,3.9806,N,N,Y,,Service,Service N.O.S.,,Atlantis,Catchall Rule,Generic Response,6929172.894,420985.2119,-125.39998,44.71549
01/02/2017 11:29:46,321,7201 NORTHEAST 5TH STREET,2017-000472,M1,0,2.93545,2.93545,N,N,Y,,EMS,ALS,,Atlantis,ALS Rule,ALS Response,6940948.56,433483.3263,-125.35765,44.75166
01/02/2017 11:30:05,600,UNKNOWN ADDRESS,2017-000473,E10,0,2.920233,2.920233,N,N,Y,,Fire,Good Intent,,Atlantis,Catchall Rule,Generic Response,6948851.971,435366.7213,-125.32771,44.75811
01/02/2017 11:41:57,324,SERVICE ROAD,2017-000474,E8,0,4.474867,4.474867,N,N,Y,,MVA,MVA N.O.S.,,Atlantis,Catchall Rule,Generic Response,6927437.248,417984.5014,-125.40594,44.70698
01/02/2017 11:43:31,324,NORTHEAST 80TH AVENUE,2017-000475,E20,0,4.618583,4.618583,N,N,Y,,MVA,MVA N.O.S.,,Atlantis,Catchall Rule,Generic Response,6953150.398,425316.3464,-125.30889,44.7313
01/02/2017 11:47:23,321,1724 NORTHEAST 42ND AVENUE,2017-000476,M23,0,3.9505,3.9505,N,N,Y,,EMS,ALS,,Atlantis,ALS Rule,ALS Response,6943070.888,425283.7864,-125.3476,44.72956
01/02/2017 11:49:05,321,626 GLEN CHEEK DR,2017-000477,M78,0,4.405783,4.405783,N,N,Y,,EMS,ALS,,Atlantis,ALS Rule,ALS Response,6993298.057,395011.7683,-125.14795,44.65475
01/02/2017 11:51:58,321,3302 STYGLER ROAD,2017-000478,M13,0,5.418867,5.418867,N,N,Y,,EMS,ALS,,Gramsham,ALS Rule,ALS Response,6937121.352,391574.8575,-125.36265,44.63628
01/02/2017 11:53:48,735,1039 SOUTH KING STREET,2017-000479,E79,0,3.598883,3.598883,N,N,Y,,Fire,False Alarm,,Paradise Island,Catchall Rule,Generic Response,6913896.877,425047.9774,-125.45959,44.72406
01/02/2017 11:54:43,324,LAGUNA PLACE,2017-000480,E54,0,3.090983,3.090983,N,N,Y,,MVA,MVA N.O.S.,,Atlantis,Catchall Rule,Generic Response,6927611.46,431769.851,-125.40849,44.74476
01/02/2017 11:57:21,322,SERVICE ROAD,2017-000481,E19,0,3.545383,3.545383,N,N,Y,,MVA,MVA N.O.S.,,Atlantis,Catchall Rule,Generic Response,6961436.048,420750.7263,-125.27602,44.72014
01/02/2017 12:02:48,324,PRIMARY_LINK ROAD,2017-000482,E71,0,2.762967,2.762967,N,N,Y,,MVA,MVA N.O.S.,,Atlantis,Catchall Rule,Generic Response,6928322.161,421994.1865,-125.40348,44.71811
01/02/2017 12:03:32,552,JEFFERSON AVENUE/PRESIDENTIAL COURT,2017-000483,E78,0,5.06945,5.06945,N,N,Y,,Service,Service N.O.S.,,Atlantis,Catchall Rule,Generic Response,6998238.796,389125.7943,-125.1277,44.63941
01/02/2017 12:13:54,321,901 SOUTHEAST MAIN STREET,2017-000484,E37,0,3.1352,5.07835,N,N,Y,,EMS,ALS,,Atlantis,ALS Rule,ALS Response,6953786.626,416426.6193,-125.30441,44.70706
01/02/2017 12:15:05,321,3309 SOUTHEAST 13TH AVENUE,2017-000485,E73,0,2.274883,5.131917,N,N,Y,,EMS,ALS,,Atlantis,ALS Rule,ALS Response,6933755.133,412457.7454,-125.3804,44.6929
01/02/2017 12:17:23,440,301 EAST 15TH AVENUE,2017-000486,E53,0,4.295,4.295,N,N,Y,,Hazardous Condition,Hazardous Condition N.O.S.,,Atlantis,Catchall Rule,Generic Response,6941748.062,398430.6751,-125.34649,44.65581
01/02/2017 12:21:21,700,9201 STRATSHIRE LANE,2017-000487,E56,0,5.512283,5.512283,N,N,Y,,Fire,False Alarm,,Gramsham,Catchall Rule,Generic Response,6946138.948,389120.8511,-125.3275,44.63104
01/02/2017 12:28:21,311,YOUNG STREET,2017-000488,M79,0,3.91305,3.91305,N,N,Y,,EMS,BLS,,Paradise Island,EMS rule,BLS Response,6917981.84,424564.553,-125.44379,44.72342
01/02/2017 12:29:06,311,3275 APACHE ROAD,2017-000489,M63,0,5.594633,5.594633,N,N,Y,,EMS,BLS,,Atlantis,EMS rule,BLS Response,6929686.679,413420.0735,-125.39624,44.69486
01/02/2017 12:31:21,321,1201 19TH STREET,2017-000490,E6,0,4.897283,4.925617,N,N,Y,,EMS,ALS,,Atlantis,ALS Rule,ALS Response,6924760.169,425936.1158,-125.41808,44.72831
01/02/2017 12:34:48,412,8201 WASHINGTON STREET,2017-000491,E31,0,2.67675,2.67675,N,N,Y,,Hazardous Condition,Hazardous Condition N.O.S.,,Atlantis,Catchall Rule,Generic Response,6931084.488,401021.2147,-125.38799,44.66114
01/02/2017 12:36:20,321,3101 ARAPAHOE AVENUE,2017-000492,E71,0,4.434067,5.12165,N,N,Y,,EMS,ALS,,Atlantis,ALS Rule,ALS Response,6927698.768,419517.3812,-125.4053,44.71122
01/02/2017 12:40:43,311,1501 SOUTHEAST YAMHILL STREET,2017-000493,M18,0,4.720883,4.720883,N,N,Y,,EMS,BLS,,Atlantis,EMS rule,BLS Response,6953509.081,417421.2,-125.30571,44.70974
01/02/2017 12:42:29,324,MOTORWAY ROAD,2017-000494,E2,0,4.1818,4.1818,N,N,Y,,MVA,MVA N.O.S.,,Atlantis,Catchall Rule,Generic Response,6940248.909,417145.0515,-125.35656,44.70681
01/02/2017 12:50:31,311,8101 KAMANI STREET,2017-000495,M80,0,5.590067,5.590067,N,N,Y,,EMS,BLS,,Paradise Island,EMS rule,BLS Response,6911656.563,425063.5495,-125.4682,44.72372
01/02/2017 12:51:13,321,6001 NORTHEAST SANDY BOULEVARD,2017-000496,M23,0,4.00165,4.00165,N,N,Y,,EMS,ALS,,Atlantis,ALS Rule,ALS Response,6940746.698,424398.9615,-125.35632,44.72675
01/02/2017 12:53:43,324,SOUTHWEST BARLEY HILL DRIVE/SOUTHWEST AVENA PLACE,2017-000497,E53,0,4.66115,4.66115,N,N,Y,,MVA,MVA N.O.S.,,Atlantis,Catchall Rule,Generic Response,6943591.013,401171.8513,-125.34005,44.66362
01/02/2017 13:04:28,321,1776 UNIVERSITY AVENUE,2017-000498,E6,0,4.488333,4.97355,N,N,Y,,EMS,ALS,,Paradise Island,ALS Rule,ALS Response,6920362.962,424889.4136,-125.43472,44.72471
01/02/2017 13:07:59,321,1850 MAPLE ST NE,2017-000499,E29,0,4.672767,4.7029,N,N,Y,,EMS,ALS,,Atlantis,ALS Rule,ALS Response,6962464.9,426501.7872,-125.27338,44.73606
01/02/2017 13:08:56,700,9401 HAWTHORN AVENUE,2017-000500,E54,0,5.510317,5.510317,N,N,Y,,Fire,False Alarm,,Paradise Island,Catchall Rule,Generic Response,6922190.605,426559.9341,-125.4281,44.72959
01/02/2017 13:09:28,730,302 SOUTHEAST STARK STREET,2017-000501,E37,0,3.49355,3.49355,N,N,Y,,Fire,False Alarm,,Atlantis,Catchall Rule,Generic Response,6956651.476,418293.0261,-125.29384,44.71264
01/02/2017 13:10:41,321,2040 SOUTHEAST POWELL BOULEVARD,2017-000502,E73,0,3.835817,4.627233,N,N,Y,,EMS,ALS,,Atlantis,ALS Rule,ALS Response,6935694.13,412267.8277,-125.37291,44.6927
01/02/2017 13:17:54,321,7702 SOUTHEAST 9TH AVENUE,2017-000503,E73,0,2.5251,2.910817,N,N,Y,,EMS,ALS,,Atlantis,ALS Rule,ALS Response,6932536.37,412457.3157,-125.38508,44.6927
01/02/2017 13:21:12,551,2101 11TH STREET,2017-000504,E6,0,3.511067,3.511067,N,N,Y,,Service,Service N.O.S.,,Paradise Island,Catchall Rule,Generic Response,6921887.189,424480.0139,-125.42877,44.72384
01/02/2017 13:24:12,321,9501 SOUTHEAST STARK STREET,2017-000505,E7,0,2.2297,5.365633,N,N,Y,,EMS,ALS,,Atlantis,ALS Rule,ALS Response,6932510.196,420013.3558,-125.38694,44.71338
01/02/2017 13:28:17,324,28TH STREET,2017-000506,E71,0,1.194283,1.194283,N,N,Y,,MVA,MVA N.O.S.,,Atlantis,Catchall Rule,Generic Response,6928284.812,423438.9434,-125.40396,44.72206
01/02/2017 13:29:31,300,8501 EAST 11TH AVENUE,2017-000507,M3,0,4.956383,4.956383,N,N,Y,,EMS,BLS,,Atlantis,EMS rule,BLS Response,6933777.867,400672.5873,-125.37758,44.66064
01/02/2017 13:30:22,611,1255 HILYARD,2017-000508,E3,0,3.724733,3.724733,N,N,Y,,Fire,Good Intent,,Atlantis,Catchall Rule,Generic Response,6936054.024,399966.7117,-125.36868,44.65908
01/02/2017 13:32:07,611,SOUTHEAST 87TH AVENUE/SOUTHEAST STEPHENS STREET,2017-000509,E69,0,4.475333,4.475333,N,N,Y,,Fire,Good Intent,,Atlantis,Catchall Rule,Generic Response,6954241.754,414920.0373,-125.30232,44.70301
01/02/2017 13:32:34,611,7801 EAST BURNSIDE STREET,2017-000510,E52,0,3.756383,3.756383,N,N,Y,,Fire,Good Intent,,Atlantis,Catchall Rule,Generic Response,6937035.305,421006.8598,-125.36979,44.71685
01/02/2017 13:39:54,300,36 LANSDOWNE STREET,2017-000511,M2,0,3.731617,3.731617,N,N,Y,,EMS,BLS,,Atlantis,EMS rule,BLS Response,6945145.967,417437.744,-125.33782,44.70841
01/02/2017 13:40:05,324,KAPIOLANI BOULEVARD,2017-000512,E14,0,3.359417,3.359417,N,N,Y,,MVA,MVA N.O.S.,,Paradise Island,Catchall Rule,Generic Response,6912702.208,425644.655,-125.46432,44.72549
01/02/2017 13:45:44,611,4801 WILDER AVENUE,2017-000513,E79,0,4.913267,4.913267,N,N,Y,,Fire,Good Intent,,Paradise Island,Catchall Rule,Generic Response,6919126.337,425903.4777,-125.43971,44.72728
01/02/2017 13:54:07,600,8401 KONA STREET,2017-000514,L79,0,3.1696,3.1696,N,N,Y,,Fire,Good Intent,,Paradise Island,Catchall Rule,Generic Response,6913787.617,424288.0295,-125.45983,44.72196
01/02/2017 13:54:59,611,5701 BROADWAY,2017-000515,E6,0,2.57085,2.57085,N,N,Y,,Fire,Good Intent,,Atlantis,Catchall Rule,Generic Response,6922476.017,421042.1826,-125.42571,44.71453
01/02/2017 13:56:08,322,307 SOUTHEAST 32ND AVENUE,2017-000516,E52,0,3.206733,3.206733,N,N,Y,,MVA,MVA N.O.S.,,Atlantis,Catchall Rule,Generic Response,6939448.467,419945.9032,-125.36028,44.71434
01/02/2017 13:58:31,510,2101 SOUTHWEST SIMPSON AVENUE,2017-000517,E47,0,4.948583,4.948583,N,N,Y,,Service,Service N.O.S.,,Atlantis,Catchall Rule,Generic Response,6934392.238,431029.0728,-125.38227,44.74385
01/02/2017 14:03:25,321,3601 ROSALIND AVENUE,2017-000518,M78,0,4.728083,4.728083,N,N,Y,,EMS,ALS,,Atlantis,ALS Rule,ALS Response,6997854.193,389957.0804,-125.12936,44.64163
01/02/2017 14:06:39,321,2201 ORCHARD STREET,2017-000519,M3,0,3.8881,3.8881,N,N,Y,,EMS,ALS,,Atlantis,ALS Rule,ALS Response,6940757.592,398351.0676,-125.35027,44.65543
01/02/2017 14:12:49,321,7201 SOUTHEAST FRANCIS STREET,2017-000520,E44,0,2.882283,4.82135,N,N,Y,,EMS,ALS,,Atlantis,ALS Rule,ALS Response,6941592.083,410028.1913,-125.34976,44.68754
01/02/2017 14:15:09,745,10001 GINGER PLACE,2017-000521,E13,0,5.03865,5.03865,N,N,Y,,Fire,False Alarm,,Gramsham,Catchall Rule,Generic Response,6937592.623,390283.9812,-125.36054,44.63282
01/02/2017 14:15:57,324,LIME STREET/PAANI STREET,2017-000522,E6,0,4.230883,4.230883,N,N,Y,,MVA,MVA N.O.S.,,Paradise Island,Catchall Rule,Generic Response,6918582.185,422513.3532,-125.441,44.7179
01/02/2017 14:17:06,311,2101 SOUTHWEST SIMPSON AVENUE,2017-000523,M1,0,5.825533,5.825533,N,N,Y,,EMS,BLS,,Atlantis,EMS rule,BLS Response,6934392.238,431029.0728,-125.38227,44.74385
01/02/2017 14:17:11,531,1501 NORTHEAST ALAMEDA STREET,2017-000524,E12,0,3.5143,3.5143,N,N,Y,,Service,Service N.O.S.,,Atlantis,Catchall Rule,Generic Response,6951485.665,427721.4692,-125.31584,44.73761
01/02/2017 14:18:42,321,9401 HAWTHORN AVENUE,2017-000525,E54,0,5.510317,5.589667,N,N,Y,,EMS,ALS,,Paradise Island,ALS Rule,ALS Response,6922190.605,426559.9341,-125.4281,44.72959
01/02/2017 14:20:15,311,6501 7TH STREET,2017-000526,M79,0,5.8943,5.8943,N,N,Y,,EMS,BLS,,Paradise Island,EMS rule,BLS Response,6921027.304,417692.7646,-125.43048,44.70511
01/02/2017 14:21:21,321,1401 NORTHEAST DEMPSEY DRIVE,2017-000527,E10,0,4.9966,5.171817,N,N,Y,,EMS,ALS,,Atlantis,ALS Rule,ALS Response,6945519.735,439998.466,-125.34158,44.77025
01/02/2017 14:21:56,321,1807 NORTHEAST WASCO STREET,2017-000528,E17,0,3.36175,5.456167,N,N,Y,,EMS,ALS,,Atlantis,ALS Rule,ALS Response,6935839.36,424550.8901,-125.37521,44.72636
01/02/2017 14:22:59,321,1900 WARDENBURG DRIVE,2017-000529,E8,0,3.614783,5.621217,N,N,Y,,EMS,ALS,,Atlantis,ALS Rule,ALS Response,6925106.722,416375.3517,-125.41451,44.70219
01/02/2017 14:23:33,321,NORTHEAST PACIFIC STREET/NORTHEAST HASSALO STREET,2017-000530,E23,0,4.227167,5.257717,N,N,Y,,EMS,ALS,,Atlantis,ALS Rule,ALS Response,6941053.098,423627.9414,-125.35497,44.72469
01/02/2017 14:24:09,300,28TH STREET,2017-000531,M15,0,6.406983,6.406983,N,N,Y,,EMS,BLS,,Atlantis,EMS rule,BLS Response,6928365.416,424882.1936,-125.40399,44.72602
01/02/2017 14:28:21,324,SOUTHWEST REED MARKET ROAD,2017-000532,E47,0,3.3539,3.3539,N,N,Y,,MVA,MVA N.O.S.,,Atlantis,Catchall Rule,Generic Response,6933133.253,428737.439,-125.38657,44.73737
01/02/2017 14:29:41,331,2237 KUHIO AVENUE,2017-000533,E6,0,4.948267,4.948267,N,N,Y,,Service,Service N.O.S.,,Paradise Island,Catchall Rule,Generic Response,6918980.807,419971.6704,-125.43887,44.71101
01/02/2017 14:29:50,321,28TH STREET,2017-000534,E71,0,2.6449,4.2222,N,N,Y,,EMS,ALS,,Atlantis,ALS Rule,ALS Response,6928338.18,422149.3902,-125.40345,44.71854
01/02/2017 14:29:53,322,YOUNG STREET/ELSIE LANE,2017-000535,E79,0,3.784117,3.784117,N,N,Y,,MVA,MVA N.O.S.,,Paradise Island,Catchall Rule,Generic Response,6917559.594,424750.7701,-125.44546,44.72386
01/02/2017 14:34:19,324,NORTHEAST 76TH AVENUE/NORTHEAST GLISAN STREET,2017-000536,E18,0,3.040367,3.040367,N,N,Y,,MVA,MVA N.O.S.,,Atlantis,Catchall Rule,Generic Response,6951939.582,421384.5038,-125.31264,44.72033
01/02/2017 14:34:57,311,1450 ALA MOANA BOULEVARD,2017-000537,M79,0,3.957267,3.957267,N,N,Y,,EMS,BLS,,Paradise Island,EMS rule,BLS Response,6914901.287,422990.635,-125.45525,44.71859
01/02/2017 14:36:16,311,SOUTHEAST BOISE STREET/SOUTHEAST 62ND AVENUE,2017-000538,M32,0,2.411733,2.411733,N,N,Y,,EMS,BLS,,Atlantis,EMS rule,BLS Response,6947363.246,409059.6485,-125.32738,44.68584
01/02/2017 14:36:20,745,5601 HAYMARKET PLACE,2017-000539,E3,0,5.952483,5.952483,N,N,Y,,Fire,False Alarm,,Gramsham,Catchall Rule,Generic Response,6936400.186,388955.3305,-125.36481,44.62899
01/02/2017 14:39:28,324,SOUTHEAST 36TH PLACE,2017-000540,E44,0,3.8624,3.8624,N,N,Y,,MVA,MVA N.O.S.,,Atlantis,Catchall Rule,Generic Response,6940430.115,407477.4093,-125.35363,44.68037
01/02/2017 14:41:58,321,NORTHWEST 14TH STREET,2017-000541,E38,0,5.089333,5.621983,N,N,Y,,EMS,ALS,,Atlantis,ALS Rule,ALS Response,6932489.852,434495.3935,-125.39038,44.75303
01/02/2017 14:43:37,311,2500 30TH STREET,2017-000542,M71,0,2.630717,2.630717,N,N,Y,,EMS,BLS,,Atlantis,EMS rule,BLS Response,6929564.852,423392.413,-125.39903,44.72214
01/02/2017 14:46:14,311,902 SOUTHEAST SHERMAN STREET,2017-000543,M39,0,5.128467,5.128467,N,N,Y,,EMS,BLS,,Atlantis,EMS rule,BLS Response,6932871.202,415095.3574,-125.38441,44.69998
01/02/2017 14:49:11,311,SOUTHEAST HAWTHORNE BOULEVARD/SOUTHEAST 89TH AVENUE,2017-000544,M18,0,5.3997,5.3997,N,N,Y,,EMS,BLS,,Atlantis,EMS rule,BLS Response,6954891.18,416031.7931,-125.30008,44.70616
